[
  {
    "ville": "Aast",
    "code": "64460",
    "lat": 43.2908772184,
    "lng": -0.0817726913902
  },
  {
    "ville": "Abainville",
    "code": "55130",
    "lat": 48.5326982449,
    "lng": 5.51524727317
  },
  {
    "ville": "Abancourt",
    "code": "59268",
    "lat": 50.2368696873,
    "lng": 3.20731301738
  },
  {
    "ville": "Abancourt",
    "code": "60220",
    "lat": 49.6930546611,
    "lng": 1.76924374516
  },
  {
    "ville": "Abaucourt",
    "code": "54610",
    "lat": 48.8928445916,
    "lng": 6.26559712571
  },
  {
    "ville": "Abaucourt Hautecourt",
    "code": "55400",
    "lat": 49.1969606553,
    "lng": 5.54868808043
  },
  {
    "ville": "Abbans Dessous",
    "code": "25320",
    "lat": 47.1340668703,
    "lng": 5.87286847337
  },
  {
    "ville": "Abbans Dessus",
    "code": "25440",
    "lat": 47.1269966057,
    "lng": 5.88626408283
  },
  {
    "ville": "Abbaretz",
    "code": "44170",
    "lat": 47.5560384833,
    "lng": -1.49327262094
  },
  {
    "ville": "Abbecourt",
    "code": "02300",
    "lat": 49.5991518653,
    "lng": 3.17708232927
  },
  {
    "ville": "Abbecourt",
    "code": "60430",
    "lat": 49.361199272,
    "lng": 2.15509033815
  },
  {
    "ville": "Abbenans",
    "code": "25340",
    "lat": 47.4960879279,
    "lng": 6.45060175112
  },
  {
    "ville": "Abbeville",
    "code": "80100",
    "lat": 50.1083582944,
    "lng": 1.83209170207
  },
  {
    "ville": "Abbeville La Riviere",
    "code": "91150",
    "lat": 48.3437461384,
    "lng": 2.19127679346
  },
  {
    "ville": "Abbeville Les Conflans",
    "code": "54800",
    "lat": 49.2002692912,
    "lng": 5.84406780319
  },
  {
    "ville": "Abbeville St Lucien",
    "code": "60480",
    "lat": 49.5201068363,
    "lng": 2.16636536385
  },
  {
    "ville": "Abbevillers",
    "code": "25310",
    "lat": 47.427439192,
    "lng": 6.92162186226
  },
  {
    "ville": "Abeilhan",
    "code": "34290",
    "lat": 43.4575019905,
    "lng": 3.29923508306
  },
  {
    "ville": "Abelcourt",
    "code": "70300",
    "lat": 47.7934014233,
    "lng": 6.27774541889
  },
  {
    "ville": "Abere",
    "code": "64160",
    "lat": 43.3870958576,
    "lng": -0.174833109291
  },
  {
    "ville": "Abergement La Ronce",
    "code": "39500",
    "lat": 47.0649669593,
    "lng": 5.37826421743
  },
  {
    "ville": "Abergement Le Grand",
    "code": "39600",
    "lat": 46.9142864988,
    "lng": 5.67853452364
  },
  {
    "ville": "Abergement Le Petit",
    "code": "39800",
    "lat": 46.906561832,
    "lng": 5.69663602324
  },
  {
    "ville": "Abergement Les Thesy",
    "code": "39110",
    "lat": 46.9134980199,
    "lng": 5.94569839295
  },
  {
    "ville": "Abidos",
    "code": "64150",
    "lat": 43.3951950748,
    "lng": -0.628336499241
  },
  {
    "ville": "Abilly",
    "code": "37160",
    "lat": 46.9411244235,
    "lng": 0.734787296451
  },
  {
    "ville": "Abitain",
    "code": "64390",
    "lat": 43.4173386214,
    "lng": -0.99809023231
  },
  {
    "ville": "Abjat Sur Bandiat",
    "code": "24300",
    "lat": 45.5817657415,
    "lng": 0.759998823063
  },
  {
    "ville": "Ablain St Nazaire",
    "code": "62153",
    "lat": 50.3965609084,
    "lng": 2.69725163344
  },
  {
    "ville": "Ablaincourt Pressoir",
    "code": "80320",
    "lat": 49.8413195623,
    "lng": 2.82481058921
  },
  {
    "ville": "Ablainzevelle",
    "code": "62116",
    "lat": 50.153659552,
    "lng": 2.74147361096
  },
  {
    "ville": "Ablancourt",
    "code": "51240",
    "lat": 48.8103417636,
    "lng": 4.53084843791
  },
  {
    "ville": "Ableiges",
    "code": "95450",
    "lat": 49.085772994,
    "lng": 1.97486524588
  },
  {
    "ville": "Ablis",
    "code": "78660",
    "lat": 48.5283257707,
    "lng": 1.85096499421
  },
  {
    "ville": "Ablon",
    "code": "14600",
    "lat": 49.3942506112,
    "lng": 0.286767648584
  },
  {
    "ville": "Ablon Sur Seine",
    "code": "94480",
    "lat": 48.7238409464,
    "lng": 2.42117629348
  },
  {
    "ville": "Aboen",
    "code": "42380",
    "lat": 45.412713546,
    "lng": 4.12725438172
  },
  {
    "ville": "Aboncourt",
    "code": "54115",
    "lat": 48.3611044547,
    "lng": 5.98255466791
  },
  {
    "ville": "Aboncourt",
    "code": "57920",
    "lat": 49.2565158648,
    "lng": 6.35416455836
  },
  {
    "ville": "Aboncourt Gesincourt",
    "code": "70500",
    "lat": 47.7683562569,
    "lng": 5.97257332225
  },
  {
    "ville": "Aboncourt Sur Seille",
    "code": "57590",
    "lat": 48.8186679657,
    "lng": 6.35583662298
  },
  {
    "ville": "Abondance",
    "code": "74360",
    "lat": 46.2661080816,
    "lng": 6.7321620538
  },
  {
    "ville": "Abondant",
    "code": "28410",
    "lat": 48.795057031,
    "lng": 1.42001117062
  },
  {
    "ville": "Abos",
    "code": "64360",
    "lat": 43.3538742135,
    "lng": -0.550692004112
  },
  {
    "ville": "Abreschviller",
    "code": "57560",
    "lat": 48.60157203,
    "lng": 7.15576686053
  },
  {
    "ville": "Abrest",
    "code": "03200",
    "lat": 46.0955766716,
    "lng": 3.45052482175
  },
  {
    "ville": "Abries",
    "code": "05460",
    "lat": 44.8163462455,
    "lng": 6.94164442809
  },
  {
    "ville": "Abscon",
    "code": "59215",
    "lat": 50.3283410844,
    "lng": 3.29787586969
  },
  {
    "ville": "Abzac",
    "code": "16500",
    "lat": 46.0995520567,
    "lng": 0.715822844014
  },
  {
    "ville": "Abzac",
    "code": "33230",
    "lat": 45.0106457764,
    "lng": -0.130179806678
  },
  {
    "ville": "Accolans",
    "code": "25250",
    "lat": 47.4906236179,
    "lng": 6.53413561581
  },
  {
    "ville": "Accolay",
    "code": "89460",
    "lat": 47.6562162048,
    "lng": 3.70516767452
  },
  {
    "ville": "Accons",
    "code": "07160",
    "lat": 44.8885328213,
    "lng": 4.39242968382
  },
  {
    "ville": "Accous",
    "code": "64490",
    "lat": 42.9398080836,
    "lng": -0.579066514702
  },
  {
    "ville": "Achain",
    "code": "57340",
    "lat": 48.9158245704,
    "lng": 6.59030850848
  },
  {
    "ville": "Achen",
    "code": "57412",
    "lat": 49.046252952,
    "lng": 7.18366864797
  },
  {
    "ville": "Achenheim",
    "code": "67204",
    "lat": 48.58046231,
    "lng": 7.62540605297
  },
  {
    "ville": "Acheres",
    "code": "18250",
    "lat": 47.2826534372,
    "lng": 2.45877786434
  },
  {
    "ville": "Acheres",
    "code": "78260",
    "lat": 48.9717990892,
    "lng": 2.09003871824
  },
  {
    "ville": "Acheres La Foret",
    "code": "77760",
    "lat": 48.348528561,
    "lng": 2.56456686676
  },
  {
    "ville": "Achery",
    "code": "02800",
    "lat": 49.6936187791,
    "lng": 3.39735632148
  },
  {
    "ville": "Acheux En Amienois",
    "code": "80560",
    "lat": 50.0715561395,
    "lng": 2.53117777106
  },
  {
    "ville": "Acheux En Vimeu",
    "code": "80210",
    "lat": 50.0660366423,
    "lng": 1.67027205864
  },
  {
    "ville": "Acheville",
    "code": "62320",
    "lat": 50.3843803047,
    "lng": 2.88203915482
  },
  {
    "ville": "Achey",
    "code": "70180",
    "lat": 47.5770070289,
    "lng": 5.60745476371
  },
  {
    "ville": "Achicourt",
    "code": "62217",
    "lat": 50.272283128,
    "lng": 2.75614634271
  },
  {
    "ville": "Achiet Le Grand",
    "code": "62121",
    "lat": 50.1324695483,
    "lng": 2.77909963917
  },
  {
    "ville": "Achiet Le Petit",
    "code": "62121",
    "lat": 50.1256395888,
    "lng": 2.7552096399
  },
  {
    "ville": "Achun",
    "code": "58110",
    "lat": 47.1296847784,
    "lng": 3.66418782377
  },
  {
    "ville": "Achy",
    "code": "60690",
    "lat": 49.5562211633,
    "lng": 1.97185766368
  },
  {
    "ville": "Acigne",
    "code": "35690",
    "lat": 48.1464008617,
    "lng": -1.51879762112
  },
  {
    "ville": "Aclou",
    "code": "27800",
    "lat": 49.1655546426,
    "lng": 0.698293841066
  },
  {
    "ville": "Acon",
    "code": "27570",
    "lat": 48.7694578544,
    "lng": 1.10492466757
  },
  {
    "ville": "Acoua",
    "code": "97630",
    "lat": -12.7238913738,
    "lng": 45.0687067258
  },
  {
    "ville": "Acq",
    "code": "62144",
    "lat": 50.3494049466,
    "lng": 2.65503527981
  },
  {
    "ville": "Acqueville",
    "code": "14220",
    "lat": 48.9707723348,
    "lng": -0.370569787923
  },
  {
    "ville": "Acqueville",
    "code": "50440",
    "lat": 49.6112667941,
    "lng": -1.74961794435
  },
  {
    "ville": "Acquigny",
    "code": "27400",
    "lat": 49.1648717394,
    "lng": 1.1765581743
  },
  {
    "ville": "Acquin Westbecourt",
    "code": "62380",
    "lat": 50.7293873198,
    "lng": 2.07688748986
  },
  {
    "ville": "Acy",
    "code": "02200",
    "lat": 49.3471963534,
    "lng": 3.41817609834
  },
  {
    "ville": "Acy En Multien",
    "code": "60620",
    "lat": 49.1087771245,
    "lng": 2.95509279724
  },
  {
    "ville": "Acy Romance",
    "code": "08300",
    "lat": 49.4918922835,
    "lng": 4.32704942138
  },
  {
    "ville": "Adaincourt",
    "code": "57580",
    "lat": 49.0059162559,
    "lng": 6.44419024928
  },
  {
    "ville": "Adainville",
    "code": "78113",
    "lat": 48.7201535833,
    "lng": 1.66232511762
  },
  {
    "ville": "Adam Les Passavant",
    "code": "25360",
    "lat": 47.3045713356,
    "lng": 6.36894975342
  },
  {
    "ville": "Adam Les Vercel",
    "code": "25530",
    "lat": 47.1623507424,
    "lng": 6.39047378128
  },
  {
    "ville": "Adamswiller",
    "code": "67320",
    "lat": 48.9062078499,
    "lng": 7.20176753115
  },
  {
    "ville": "Adast",
    "code": "65260",
    "lat": 42.9753854058,
    "lng": -0.0764342583386
  },
  {
    "ville": "Ade",
    "code": "65100",
    "lat": 43.1415839472,
    "lng": -0.0260255659904
  },
  {
    "ville": "Adelange",
    "code": "57380",
    "lat": 49.0079073828,
    "lng": 6.60632652354
  },
  {
    "ville": "Adelans Et Le Val De Bithaine",
    "code": "70200",
    "lat": 47.7061573284,
    "lng": 6.39427632304
  },
  {
    "ville": "Adervielle Pouchergues",
    "code": "65240",
    "lat": 42.8017280148,
    "lng": 0.389922766373
  },
  {
    "ville": "Adilly",
    "code": "79200",
    "lat": 46.7014595722,
    "lng": -0.315563835199
  },
  {
    "ville": "Adinfer",
    "code": "62116",
    "lat": 50.1937061733,
    "lng": 2.70612950432
  },
  {
    "ville": "Adissan",
    "code": "34230",
    "lat": 43.535473519,
    "lng": 3.42608475989
  },
  {
    "ville": "Adon",
    "code": "45230",
    "lat": 47.7642683732,
    "lng": 2.7978849949
  },
  {
    "ville": "Adriers",
    "code": "86430",
    "lat": 46.2646103374,
    "lng": 0.789659194144
  },
  {
    "ville": "Afa",
    "code": "20167",
    "lat": 41.9844089346,
    "lng": 8.79828936731
  },
  {
    "ville": "Affieux",
    "code": "19260",
    "lat": 45.5079626044,
    "lng": 1.76751292983
  },
  {
    "ville": "Affleville",
    "code": "54800",
    "lat": 49.2639666613,
    "lng": 5.75288845363
  },
  {
    "ville": "Affoux",
    "code": "69170",
    "lat": 45.8440645304,
    "lng": 4.41392129755
  },
  {
    "ville": "Affracourt",
    "code": "54740",
    "lat": 48.458337046,
    "lng": 6.16536195039
  },
  {
    "ville": "Affringues",
    "code": "62380",
    "lat": 50.6903350571,
    "lng": 2.07492436119
  },
  {
    "ville": "Agassac",
    "code": "31230",
    "lat": 43.3720949705,
    "lng": 0.885301441873
  },
  {
    "ville": "Agde",
    "code": "34300",
    "lat": 43.309129116,
    "lng": 3.48447903133
  },
  {
    "ville": "Agel",
    "code": "34210",
    "lat": 43.3482634234,
    "lng": 2.85354795637
  },
  {
    "ville": "Agen",
    "code": "47000",
    "lat": 44.2028139104,
    "lng": 0.625583928763
  },
  {
    "ville": "Agen D Aveyron",
    "code": "12630",
    "lat": 44.3513031939,
    "lng": 2.69339680513
  },
  {
    "ville": "Agencourt",
    "code": "21700",
    "lat": 47.1250474303,
    "lng": 4.98564114053
  },
  {
    "ville": "Agenville",
    "code": "80370",
    "lat": 50.1718032322,
    "lng": 2.10777026695
  },
  {
    "ville": "Agenvillers",
    "code": "80150",
    "lat": 50.179281145,
    "lng": 1.92367045048
  },
  {
    "ville": "Ageville",
    "code": "52340",
    "lat": 48.1124478437,
    "lng": 5.3380981717
  },
  {
    "ville": "Agey",
    "code": "21410",
    "lat": 47.2873713877,
    "lng": 4.76268467218
  },
  {
    "ville": "Aghione",
    "code": "20270",
    "lat": 42.0985000918,
    "lng": 9.41152525552
  },
  {
    "ville": "Agincourt",
    "code": "54770",
    "lat": 48.7294061965,
    "lng": 6.23559240727
  },
  {
    "ville": "Agme",
    "code": "47350",
    "lat": 44.4893814272,
    "lng": 0.340441106525
  },
  {
    "ville": "Agnac",
    "code": "47800",
    "lat": 44.640821375,
    "lng": 0.382742954809
  },
  {
    "ville": "Agnat",
    "code": "43100",
    "lat": 45.3450418284,
    "lng": 3.4501817683
  },
  {
    "ville": "Agneaux",
    "code": "50180",
    "lat": 49.1154902114,
    "lng": -1.12991373053
  },
  {
    "ville": "Agnetz",
    "code": "60600",
    "lat": 49.3961836166,
    "lng": 2.38254589214
  },
  {
    "ville": "Agnez Les Duisans",
    "code": "62161",
    "lat": 50.3102322126,
    "lng": 2.65021288373
  },
  {
    "ville": "Agnicourt Et Sechelles",
    "code": "02340",
    "lat": 49.7166573626,
    "lng": 3.96043211816
  },
  {
    "ville": "Agnieres",
    "code": "62690",
    "lat": 50.3535942668,
    "lng": 2.60772514318
  },
  {
    "ville": "Agnin",
    "code": "38150",
    "lat": 45.3365990336,
    "lng": 4.85997858164
  },
  {
    "ville": "Agnos",
    "code": "64400",
    "lat": 43.1539224601,
    "lng": -0.62932795894
  },
  {
    "ville": "Agny",
    "code": "62217",
    "lat": 50.2529566088,
    "lng": 2.76055250016
  },
  {
    "ville": "Agon Coutainville",
    "code": "50230",
    "lat": 49.0388327181,
    "lng": -1.58144574808
  },
  {
    "ville": "Agonac",
    "code": "24460",
    "lat": 45.281599202,
    "lng": 0.745318376451
  },
  {
    "ville": "Agones",
    "code": "34190",
    "lat": 43.9010523591,
    "lng": 3.72652630409
  },
  {
    "ville": "Agonges",
    "code": "03210",
    "lat": 46.6180197037,
    "lng": 3.14884278466
  },
  {
    "ville": "Agos Vidalos",
    "code": "65400",
    "lat": 43.0397405633,
    "lng": -0.0754111444316
  },
  {
    "ville": "Agris",
    "code": "16110",
    "lat": 45.7764888287,
    "lng": 0.328082067918
  },
  {
    "ville": "Agudelle",
    "code": "17500",
    "lat": 45.3822931603,
    "lng": -0.469634235538
  },
  {
    "ville": "Aguessac",
    "code": "12520",
    "lat": 44.1613901609,
    "lng": 3.06898957805
  },
  {
    "ville": "Aguilcourt",
    "code": "02190",
    "lat": 49.393650796,
    "lng": 3.96803679426
  },
  {
    "ville": "Aguts",
    "code": "81470",
    "lat": 43.5319239166,
    "lng": 1.92450141388
  },
  {
    "ville": "Agy",
    "code": "14400",
    "lat": 49.2376795165,
    "lng": -0.779194569684
  },
  {
    "ville": "Ahaxe Alciette Bascassan",
    "code": "64220",
    "lat": 43.1439687884,
    "lng": -1.16379898273
  },
  {
    "ville": "Ahetze",
    "code": "64210",
    "lat": 43.4042762685,
    "lng": -1.57067985884
  },
  {
    "ville": "Aheville",
    "code": "88500",
    "lat": 48.2846289398,
    "lng": 6.19935683316
  },
  {
    "ville": "Ahuille",
    "code": "53940",
    "lat": 48.0242749675,
    "lng": -0.872848003304
  },
  {
    "ville": "Ahun",
    "code": "23150",
    "lat": 46.0861690765,
    "lng": 2.02430101436
  },
  {
    "ville": "Ahuy",
    "code": "21121",
    "lat": 47.3713563421,
    "lng": 5.02129727446
  },
  {
    "ville": "Aibes",
    "code": "59149",
    "lat": 50.233709404,
    "lng": 4.09622701433
  },
  {
    "ville": "Aibre",
    "code": "25750",
    "lat": 47.5518330621,
    "lng": 6.69787276239
  },
  {
    "ville": "Aicirits Camou Suhast",
    "code": "64120",
    "lat": 43.3536564293,
    "lng": -1.01649248098
  },
  {
    "ville": "Aiffres",
    "code": "79230",
    "lat": 46.2820504466,
    "lng": -0.41429097467
  },
  {
    "ville": "Aigaliers",
    "code": "30700",
    "lat": 44.0695522099,
    "lng": 4.31087905786
  },
  {
    "ville": "Aiglemont",
    "code": "08090",
    "lat": 49.7902205775,
    "lng": 4.77008728822
  },
  {
    "ville": "Aiglepierre",
    "code": "39110",
    "lat": 46.9553944509,
    "lng": 5.80953794446
  },
  {
    "ville": "Aigleville",
    "code": "27120",
    "lat": 49.0059752091,
    "lng": 1.42580857291
  },
  {
    "ville": "Aiglun",
    "code": "04510",
    "lat": 44.0638744567,
    "lng": 6.13842845338
  },
  {
    "ville": "Aiglun",
    "code": "06910",
    "lat": 43.8524188,
    "lng": 6.934942333
  },
  {
    "ville": "Aignan",
    "code": "32290",
    "lat": 43.6944329355,
    "lng": 0.0870356646596
  },
  {
    "ville": "Aignay Le Duc",
    "code": "21510",
    "lat": 47.6717538581,
    "lng": 4.7507180753
  },
  {
    "ville": "Aigne",
    "code": "34210",
    "lat": 43.3255517298,
    "lng": 2.79308395136
  },
  {
    "ville": "Aigne",
    "code": "72650",
    "lat": 48.0674422633,
    "lng": 0.105520640211
  },
  {
    "ville": "Aignerville",
    "code": "14710",
    "lat": 49.3261867283,
    "lng": -0.918465184477
  },
  {
    "ville": "Aignes",
    "code": "31550",
    "lat": 43.3349232679,
    "lng": 1.58645774821
  },
  {
    "ville": "Aignes Et Puyperoux",
    "code": "16190",
    "lat": 45.4499477283,
    "lng": 0.139490170805
  },
  {
    "ville": "Aigneville",
    "code": "80210",
    "lat": 50.0367632999,
    "lng": 1.60998293635
  },
  {
    "ville": "Aigny",
    "code": "51150",
    "lat": 49.042644399,
    "lng": 4.22045582777
  },
  {
    "ville": "Aigonnay",
    "code": "79370",
    "lat": 46.3265792945,
    "lng": -0.248620838347
  },
  {
    "ville": "Aigre",
    "code": "16140",
    "lat": 45.8891702634,
    "lng": -0.000376399361894
  },
  {
    "ville": "Aigrefeuille",
    "code": "31280",
    "lat": 43.5693635882,
    "lng": 1.58421445375
  },
  {
    "ville": "Aigrefeuille D Aunis",
    "code": "17290",
    "lat": 46.116506287,
    "lng": -0.944542003492
  },
  {
    "ville": "Aigrefeuille Sur Maine",
    "code": "44140",
    "lat": 47.0719256611,
    "lng": -1.41556455507
  },
  {
    "ville": "Aigremont",
    "code": "30350",
    "lat": 43.9613248241,
    "lng": 4.11795546515
  },
  {
    "ville": "Aigremont",
    "code": "52400",
    "lat": 48.0125748541,
    "lng": 5.72587981805
  },
  {
    "ville": "Aigremont",
    "code": "78240",
    "lat": 48.9008380509,
    "lng": 2.0153630611
  },
  {
    "ville": "Aigremont",
    "code": "89800",
    "lat": 47.7181013588,
    "lng": 3.89038343982
  },
  {
    "ville": "Aiguebelette Le Lac",
    "code": "73610",
    "lat": 45.5476875903,
    "lng": 5.81387589748
  },
  {
    "ville": "Aiguebelle",
    "code": "73220",
    "lat": 45.5328984806,
    "lng": 6.30449738468
  },
  {
    "ville": "Aigueblanche",
    "code": "73260",
    "lat": 45.5198646844,
    "lng": 6.51470725301
  },
  {
    "ville": "Aiguefonde",
    "code": "81200",
    "lat": 43.4928550174,
    "lng": 2.32315581418
  },
  {
    "ville": "Aigueperse",
    "code": "63260",
    "lat": 46.014833908,
    "lng": 3.2012859723
  },
  {
    "ville": "Aigueperse",
    "code": "69790",
    "lat": 46.2801268832,
    "lng": 4.42330722719
  },
  {
    "ville": "Aigues Juntes",
    "code": "09240",
    "lat": 43.0506179616,
    "lng": 1.47151123009
  },
  {
    "ville": "Aigues Mortes",
    "code": "30220",
    "lat": 43.5507249635,
    "lng": 4.18349802063
  },
  {
    "ville": "Aigues Vives",
    "code": "09600",
    "lat": 43.0006575328,
    "lng": 1.87695638902
  },
  {
    "ville": "Aigues Vives",
    "code": "11800",
    "lat": 43.2351468241,
    "lng": 2.5327825562
  },
  {
    "ville": "Aigues Vives",
    "code": "30670",
    "lat": 43.7345579232,
    "lng": 4.19079446148
  },
  {
    "ville": "Aigues Vives",
    "code": "34210",
    "lat": 43.3476601284,
    "lng": 2.82493400005
  },
  {
    "ville": "Aigueze",
    "code": "30760",
    "lat": 44.3160186564,
    "lng": 4.51739879151
  },
  {
    "ville": "Aiguilhe",
    "code": "43000",
    "lat": 45.0530693199,
    "lng": 3.88524729137
  },
  {
    "ville": "Aiguilles",
    "code": "05470",
    "lat": 44.7793442905,
    "lng": 6.87518098236
  },
  {
    "ville": "Aiguillon",
    "code": "47190",
    "lat": 44.3012876866,
    "lng": 0.358229103443
  },
  {
    "ville": "Aiguines",
    "code": "83630",
    "lat": 43.7284369506,
    "lng": 6.30439429944
  },
  {
    "ville": "Aigurande",
    "code": "36140",
    "lat": 46.455684191,
    "lng": 1.83976972145
  },
  {
    "ville": "Ailhon",
    "code": "07200",
    "lat": 44.5986106793,
    "lng": 4.33305809833
  },
  {
    "ville": "Aillant Sur Milleron",
    "code": "45230",
    "lat": 47.7948800184,
    "lng": 2.93667863104
  },
  {
    "ville": "Aillant Sur Tholon",
    "code": "89110",
    "lat": 47.8710829792,
    "lng": 3.32834802576
  },
  {
    "ville": "Aillas",
    "code": "33124",
    "lat": 44.4835265148,
    "lng": -0.0662157307002
  },
  {
    "ville": "Ailleux",
    "code": "42130",
    "lat": 45.7991604687,
    "lng": 3.93365168543
  },
  {
    "ville": "Aillevans",
    "code": "70110",
    "lat": 47.5901064587,
    "lng": 6.41781812874
  },
  {
    "ville": "Ailleville",
    "code": "10200",
    "lat": 48.2549995704,
    "lng": 4.69449329268
  },
  {
    "ville": "Aillevillers Et Lyaumont",
    "code": "70320",
    "lat": 47.9382332806,
    "lng": 6.33247986136
  },
  {
    "ville": "Aillianville",
    "code": "52700",
    "lat": 48.3333027636,
    "lng": 5.48294419471
  },
  {
    "ville": "Aillieres Beauvoir",
    "code": "72600",
    "lat": 48.3996493639,
    "lng": 0.321252383862
  },
  {
    "ville": "Aillon Le Jeune",
    "code": "73340",
    "lat": 45.6088639529,
    "lng": 6.08868598171
  },
  {
    "ville": "Aillon Le Vieux",
    "code": "73340",
    "lat": 45.6506523863,
    "lng": 6.08810624188
  },
  {
    "ville": "Ailloncourt",
    "code": "70300",
    "lat": 47.7571786627,
    "lng": 6.38881331969
  },
  {
    "ville": "Ailly",
    "code": "27600",
    "lat": 49.1575246748,
    "lng": 1.24431447068
  },
  {
    "ville": "Ailly Le Haut Clocher",
    "code": "80690",
    "lat": 50.0813661279,
    "lng": 1.996040675
  },
  {
    "ville": "Ailly Sur Noye",
    "code": "80250",
    "lat": 49.7466608044,
    "lng": 2.34699446197
  },
  {
    "ville": "Ailly Sur Somme",
    "code": "80470",
    "lat": 49.9134876579,
    "lng": 2.18609222746
  },
  {
    "ville": "Aimargues",
    "code": "30470",
    "lat": 43.6717803693,
    "lng": 4.20375100125
  },
  {
    "ville": "Aime La Plagne",
    "code": "73210",
    "lat": 45.5525768932,
    "lng": 6.61836974596
  },
  {
    "ville": "Ainay Le Chateau",
    "code": "03360",
    "lat": 46.7155678491,
    "lng": 2.72085613518
  },
  {
    "ville": "Ainay Le Vieil",
    "code": "18200",
    "lat": 46.6641114038,
    "lng": 2.54417379933
  },
  {
    "ville": "Aincille",
    "code": "64220",
    "lat": 43.1339521918,
    "lng": -1.19765745268
  },
  {
    "ville": "Aincourt",
    "code": "95510",
    "lat": 49.0728443021,
    "lng": 1.77403416153
  },
  {
    "ville": "Aincreville",
    "code": "55110",
    "lat": 49.3697469375,
    "lng": 5.11617164649
  },
  {
    "ville": "Aingeray",
    "code": "54460",
    "lat": 48.7369624344,
    "lng": 6.0192315764
  },
  {
    "ville": "Aingeville",
    "code": "88140",
    "lat": 48.2051593697,
    "lng": 5.76821691233
  },
  {
    "ville": "Aingoulaincourt",
    "code": "52230",
    "lat": 48.4562339315,
    "lng": 5.27698051622
  },
  {
    "ville": "Ainharp",
    "code": "64130",
    "lat": 43.2547388679,
    "lng": -0.935719451958
  },
  {
    "ville": "Ainhice Mongelos",
    "code": "64220",
    "lat": 43.2143412216,
    "lng": -1.15953469932
  },
  {
    "ville": "Ainhoa",
    "code": "64250",
    "lat": 43.2973870708,
    "lng": -1.48514354363
  },
  {
    "ville": "Ainvelle",
    "code": "70800",
    "lat": 47.8479400704,
    "lng": 6.24391333161
  },
  {
    "ville": "Ainvelle",
    "code": "88320",
    "lat": 47.9873795965,
    "lng": 5.82891715063
  },
  {
    "ville": "Airaines",
    "code": "80270",
    "lat": 49.9720712318,
    "lng": 1.94513035737
  },
  {
    "ville": "Airan",
    "code": "14370",
    "lat": 49.0953124219,
    "lng": -0.145440484479
  },
  {
    "ville": "Aire",
    "code": "08190",
    "lat": 49.4707483815,
    "lng": 4.16388872575
  },
  {
    "ville": "Aire Sur L Adour",
    "code": "40800",
    "lat": 43.6983525736,
    "lng": -0.265145513574
  },
  {
    "ville": "Aire Sur La Lys",
    "code": "62120",
    "lat": 50.6441641115,
    "lng": 2.39533267946
  },
  {
    "ville": "Airel",
    "code": "50680",
    "lat": 49.2125093524,
    "lng": -1.08007866426
  },
  {
    "ville": "Airion",
    "code": "60600",
    "lat": 49.4222514079,
    "lng": 2.41814312594
  },
  {
    "ville": "Airon Notre Dame",
    "code": "62180",
    "lat": 50.4412207446,
    "lng": 1.66789087192
  },
  {
    "ville": "Airon St Vaast",
    "code": "62180",
    "lat": 50.4271409917,
    "lng": 1.6712119131
  },
  {
    "ville": "Airoux",
    "code": "11320",
    "lat": 43.3676910136,
    "lng": 1.87455000904
  },
  {
    "ville": "Airvault",
    "code": "79600",
    "lat": 46.8329725103,
    "lng": -0.135880248296
  },
  {
    "ville": "Aiserey",
    "code": "21110",
    "lat": 47.1728785893,
    "lng": 5.16876522456
  },
  {
    "ville": "Aisey Et Richecourt",
    "code": "70500",
    "lat": 47.8881139494,
    "lng": 5.95536698113
  },
  {
    "ville": "Aisey Sur Seine",
    "code": "21400",
    "lat": 47.7479865538,
    "lng": 4.57814842131
  },
  {
    "ville": "Aisonville Et Bernoville",
    "code": "02110",
    "lat": 49.930148162,
    "lng": 3.51120205593
  },
  {
    "ville": "Aissey",
    "code": "25360",
    "lat": 47.2699271702,
    "lng": 6.32693976026
  },
  {
    "ville": "Aisy Sous Thil",
    "code": "21390",
    "lat": 47.3934525171,
    "lng": 4.27887372398
  },
  {
    "ville": "Aisy Sur Armancon",
    "code": "89390",
    "lat": 47.6569574082,
    "lng": 4.2090837181
  },
  {
    "ville": "Aiti",
    "code": "20244",
    "lat": 42.4043178377,
    "lng": 9.22873647306
  },
  {
    "ville": "Aiton",
    "code": "73220",
    "lat": 45.5733792643,
    "lng": 6.257350927
  },
  {
    "ville": "Aix",
    "code": "19200",
    "lat": 45.6131404682,
    "lng": 2.39218552695
  },
  {
    "ville": "Aix",
    "code": "59310",
    "lat": 50.498421043,
    "lng": 3.30536772065
  },
  {
    "ville": "Aix En Ergny",
    "code": "62650",
    "lat": 50.5872440261,
    "lng": 2.00011764709
  },
  {
    "ville": "Aix En Issart",
    "code": "62170",
    "lat": 50.4802572282,
    "lng": 1.86105299794
  },
  {
    "ville": "Aix En Provence",
    "code": "13080",
    "lat": 43.5360708378,
    "lng": 5.39857444582
  },
  {
    "ville": "Aix En Provence",
    "code": "13090",
    "lat": 43.5360708378,
    "lng": 5.39857444582
  },
  {
    "ville": "Aix En Provence",
    "code": "13100",
    "lat": 43.5360708378,
    "lng": 5.39857444582
  },
  {
    "ville": "Aix En Provence",
    "code": "13290",
    "lat": 43.5360708378,
    "lng": 5.39857444582
  },
  {
    "ville": "Aix En Provence",
    "code": "13540",
    "lat": 43.5360708378,
    "lng": 5.39857444582
  },
  {
    "ville": "Aix La Fayette",
    "code": "63980",
    "lat": 45.5069762836,
    "lng": 3.52877162272
  },
  {
    "ville": "Aix Les Bains",
    "code": "73100",
    "lat": 45.6978541675,
    "lng": 5.90388626955
  },
  {
    "ville": "Aix Noulette",
    "code": "62160",
    "lat": 50.4212424085,
    "lng": 2.71263968704
  },
  {
    "ville": "Aix Villemaur Palis",
    "code": "10160",
    "lat": 48.1975745771,
    "lng": 3.73632794113
  },
  {
    "ville": "Aix Villemaur Palis",
    "code": "10190",
    "lat": 48.1975745771,
    "lng": 3.73632794113
  },
  {
    "ville": "Aixe Sur Vienne",
    "code": "87700",
    "lat": 45.798115839,
    "lng": 1.13256119886
  },
  {
    "ville": "Aizac",
    "code": "07530",
    "lat": 44.7196762414,
    "lng": 4.3306729158
  },
  {
    "ville": "Aizanville",
    "code": "52120",
    "lat": 48.1116130217,
    "lng": 4.89456102722
  },
  {
    "ville": "Aize",
    "code": "36150",
    "lat": 47.1078990064,
    "lng": 1.70661723859
  },
  {
    "ville": "Aizecourt Le Bas",
    "code": "80240",
    "lat": 49.9867768192,
    "lng": 3.02909399369
  },
  {
    "ville": "Aizecourt Le Haut",
    "code": "80200",
    "lat": 49.9669534703,
    "lng": 2.98250284115
  },
  {
    "ville": "Aizelles",
    "code": "02820",
    "lat": 49.4848002918,
    "lng": 3.81870255331
  },
  {
    "ville": "Aizenay",
    "code": "85190",
    "lat": 46.7384516809,
    "lng": -1.62702889721
  },
  {
    "ville": "Aizier",
    "code": "27500",
    "lat": 49.4307181998,
    "lng": 0.626081675933
  },
  {
    "ville": "Aizy Jouy",
    "code": "02370",
    "lat": 49.4384256824,
    "lng": 3.51149185429
  },
  {
    "ville": "Ajac",
    "code": "11300",
    "lat": 43.0449880503,
    "lng": 2.13672463655
  },
  {
    "ville": "Ajaccio",
    "code": "20000",
    "lat": 41.9347926638,
    "lng": 8.70132275974
  },
  {
    "ville": "Ajaccio",
    "code": "20090",
    "lat": 41.9347926638,
    "lng": 8.70132275974
  },
  {
    "ville": "Ajaccio",
    "code": "20167",
    "lat": 41.9347926638,
    "lng": 8.70132275974
  },
  {
    "ville": "Ajain",
    "code": "23380",
    "lat": 46.2109887646,
    "lng": 1.9959623106
  },
  {
    "ville": "Ajat",
    "code": "24210",
    "lat": 45.1611118041,
    "lng": 1.02760334282
  },
  {
    "ville": "Ajoncourt",
    "code": "57590",
    "lat": 48.8450639322,
    "lng": 6.3036696933
  },
  {
    "ville": "Ajoux",
    "code": "07000",
    "lat": 44.7550573905,
    "lng": 4.48565370819
  },
  {
    "ville": "Alaigne",
    "code": "11240",
    "lat": 43.0978286628,
    "lng": 2.09203368421
  },
  {
    "ville": "Alaincourt",
    "code": "02240",
    "lat": 49.7667120841,
    "lng": 3.36639043616
  },
  {
    "ville": "Alaincourt",
    "code": "70210",
    "lat": 47.9462772767,
    "lng": 6.09996609571
  },
  {
    "ville": "Alaincourt La Cote",
    "code": "57590",
    "lat": 48.8969970894,
    "lng": 6.34037404652
  },
  {
    "ville": "Alairac",
    "code": "11290",
    "lat": 43.1820306523,
    "lng": 2.2370439206
  },
  {
    "ville": "Alan",
    "code": "31420",
    "lat": 43.2200878042,
    "lng": 0.927625726585
  },
  {
    "ville": "Alando",
    "code": "20212",
    "lat": 42.3072494054,
    "lng": 9.28630204632
  },
  {
    "ville": "Alata",
    "code": "20167",
    "lat": 41.9735186682,
    "lng": 8.73133206502
  },
  {
    "ville": "Alba La Romaine",
    "code": "07400",
    "lat": 44.5544439142,
    "lng": 4.59597695147
  },
  {
    "ville": "Alban",
    "code": "81250",
    "lat": 43.8843961225,
    "lng": 2.45700986389
  },
  {
    "ville": "Albaret Le Comtal",
    "code": "48310",
    "lat": 44.8676627998,
    "lng": 3.14383678125
  },
  {
    "ville": "Albaret Ste Marie",
    "code": "48200",
    "lat": 44.8864422814,
    "lng": 3.25064355451
  },
  {
    "ville": "Albas",
    "code": "11360",
    "lat": 43.0056644881,
    "lng": 2.7267548127
  },
  {
    "ville": "Albas",
    "code": "46140",
    "lat": 44.461394449,
    "lng": 1.24016214719
  },
  {
    "ville": "Albe",
    "code": "67220",
    "lat": 48.3614659809,
    "lng": 7.33650221165
  },
  {
    "ville": "Albefeuille Lagarde",
    "code": "82290",
    "lat": 44.0482971636,
    "lng": 1.27398142654
  },
  {
    "ville": "Albepierre Bredons",
    "code": "15300",
    "lat": 45.0773628092,
    "lng": 2.82044100103
  },
  {
    "ville": "Albert",
    "code": "80300",
    "lat": 50.0040829344,
    "lng": 2.6483138296
  },
  {
    "ville": "Albertacce",
    "code": "20224",
    "lat": 42.3117941076,
    "lng": 8.92423033485
  },
  {
    "ville": "Albertville",
    "code": "73200",
    "lat": 45.6683987277,
    "lng": 6.40460338643
  },
  {
    "ville": "Albestroff",
    "code": "57670",
    "lat": 48.929810647,
    "lng": 6.8693705224
  },
  {
    "ville": "Albi",
    "code": "81000",
    "lat": 43.9258213622,
    "lng": 2.14686328555
  },
  {
    "ville": "Albiac",
    "code": "31460",
    "lat": 43.5558012046,
    "lng": 1.78268278702
  },
  {
    "ville": "Albiac",
    "code": "46500",
    "lat": 44.7677846601,
    "lng": 1.81316980755
  },
  {
    "ville": "Albias",
    "code": "82350",
    "lat": 44.0815971851,
    "lng": 1.44856431622
  },
  {
    "ville": "Albieres",
    "code": "11330",
    "lat": 42.946718737,
    "lng": 2.44639291505
  },
  {
    "ville": "Albies",
    "code": "09310",
    "lat": 42.7544533927,
    "lng": 1.69800818291
  },
  {
    "ville": "Albiez Le Jeune",
    "code": "73300",
    "lat": 45.2391859578,
    "lng": 6.35812756812
  },
  {
    "ville": "Albiez Montrond",
    "code": "73300",
    "lat": 45.1885296943,
    "lng": 6.33989973257
  },
  {
    "ville": "Albignac",
    "code": "19190",
    "lat": 45.147448938,
    "lng": 1.67744680624
  },
  {
    "ville": "Albigny Sur Saone",
    "code": "69250",
    "lat": 45.8642146878,
    "lng": 4.83076882864
  },
  {
    "ville": "Albine",
    "code": "81240",
    "lat": 43.4439474577,
    "lng": 2.52811969517
  },
  {
    "ville": "Albitreccia",
    "code": "20128",
    "lat": 41.860474641,
    "lng": 8.87771179182
  },
  {
    "ville": "Albitreccia",
    "code": "20166",
    "lat": 41.860474641,
    "lng": 8.87771179182
  },
  {
    "ville": "Albon",
    "code": "26140",
    "lat": 45.2388897722,
    "lng": 4.86235251807
  },
  {
    "ville": "Albon D Ardeche",
    "code": "07190",
    "lat": 44.8152938105,
    "lng": 4.42503897561
  },
  {
    "ville": "Alboussiere",
    "code": "07440",
    "lat": 44.9397584607,
    "lng": 4.73413213329
  },
  {
    "ville": "Albussac",
    "code": "19380",
    "lat": 45.1413289444,
    "lng": 1.8139819421
  },
  {
    "ville": "Alby Sur Cheran",
    "code": "74540",
    "lat": 45.8156435779,
    "lng": 6.01581486858
  },
  {
    "ville": "Alcay Alcabehety Sunharette",
    "code": "64470",
    "lat": 43.0865933129,
    "lng": -0.975830876097
  },
  {
    "ville": "Aldudes",
    "code": "64430",
    "lat": 43.0920329311,
    "lng": -1.43472285971
  },
  {
    "ville": "Alembon",
    "code": "62850",
    "lat": 50.7805751248,
    "lng": 1.87194877839
  },
  {
    "ville": "Alencon",
    "code": "61000",
    "lat": 48.4318193082,
    "lng": 0.0915406916107
  },
  {
    "ville": "Alenya",
    "code": "66200",
    "lat": 42.6407019491,
    "lng": 2.98145485065
  },
  {
    "ville": "Aleria",
    "code": "20270",
    "lat": 42.1059105058,
    "lng": 9.495645512
  },
  {
    "ville": "Ales",
    "code": "30100",
    "lat": 44.1250099126,
    "lng": 4.08828501262
  },
  {
    "ville": "Alet Les Bains",
    "code": "11580",
    "lat": 42.9943909775,
    "lng": 2.25844650226
  },
  {
    "ville": "Alette",
    "code": "62650",
    "lat": 50.524381531,
    "lng": 1.85083000523
  },
  {
    "ville": "Aleu",
    "code": "09320",
    "lat": 42.893742098,
    "lng": 1.26749393485
  },
  {
    "ville": "Alex",
    "code": "74290",
    "lat": 45.8806920223,
    "lng": 6.23633769093
  },
  {
    "ville": "Alexain",
    "code": "53240",
    "lat": 48.2320714529,
    "lng": -0.735727853569
  },
  {
    "ville": "Aleyrac",
    "code": "26770",
    "lat": 44.4989099133,
    "lng": 4.94589832405
  },
  {
    "ville": "Alfortville",
    "code": "94140",
    "lat": 48.7960843864,
    "lng": 2.42124593241
  },
  {
    "ville": "Algajola",
    "code": "20220",
    "lat": 42.6050790894,
    "lng": 8.85735931464
  },
  {
    "ville": "Algans",
    "code": "81470",
    "lat": 43.6001082724,
    "lng": 1.89151438957
  },
  {
    "ville": "Algolsheim",
    "code": "68600",
    "lat": 48.0034942953,
    "lng": 7.54980840525
  },
  {
    "ville": "Algrange",
    "code": "57440",
    "lat": 49.3644069158,
    "lng": 6.04829438392
  },
  {
    "ville": "Alieze",
    "code": "39270",
    "lat": 46.5850122581,
    "lng": 5.58578294146
  },
  {
    "ville": "Alignan Du Vent",
    "code": "34290",
    "lat": 43.4688122746,
    "lng": 3.33925724714
  },
  {
    "ville": "Alincourt",
    "code": "08310",
    "lat": 49.4030540812,
    "lng": 4.34518271318
  },
  {
    "ville": "Alincthun",
    "code": "62142",
    "lat": 50.7213979047,
    "lng": 1.81018390432
  },
  {
    "ville": "Alise Ste Reine",
    "code": "21150",
    "lat": 47.5355145985,
    "lng": 4.48820121343
  },
  {
    "ville": "Alissas",
    "code": "07210",
    "lat": 44.7070337034,
    "lng": 4.6240636083
  },
  {
    "ville": "Alix",
    "code": "69380",
    "lat": 45.9168253291,
    "lng": 4.65500393132
  },
  {
    "ville": "Alixan",
    "code": "26300",
    "lat": 44.9822063371,
    "lng": 5.01703375369
  },
  {
    "ville": "Alizay",
    "code": "27460",
    "lat": 49.3219074958,
    "lng": 1.17828361031
  },
  {
    "ville": "Allain",
    "code": "54170",
    "lat": 48.5496654439,
    "lng": 5.92089883259
  },
  {
    "ville": "Allaines",
    "code": "80200",
    "lat": 49.9632577527,
    "lng": 2.9374491434
  },
  {
    "ville": "Allaines Mervilliers",
    "code": "28310",
    "lat": 48.1924030448,
    "lng": 1.82421313538
  },
  {
    "ville": "Allainville",
    "code": "28500",
    "lat": 48.7214134233,
    "lng": 1.29474223836
  },
  {
    "ville": "Allainville",
    "code": "78660",
    "lat": 48.4678049422,
    "lng": 1.90248656235
  },
  {
    "ville": "Allaire",
    "code": "56350",
    "lat": 47.6392193445,
    "lng": -2.17681507496
  },
  {
    "ville": "Allamont",
    "code": "54800",
    "lat": 49.1284916114,
    "lng": 5.77659749922
  },
  {
    "ville": "Allamps",
    "code": "54112",
    "lat": 48.548374875,
    "lng": 5.81464831473
  },
  {
    "ville": "Allan",
    "code": "26780",
    "lat": 44.4942339425,
    "lng": 4.79847467163
  },
  {
    "ville": "Allanche",
    "code": "15160",
    "lat": 45.2312708319,
    "lng": 2.95300274076
  },
  {
    "ville": "Alland Huy Et Sausseuil",
    "code": "08130",
    "lat": 49.5119483771,
    "lng": 4.54919404707
  },
  {
    "ville": "Allarmont",
    "code": "88110",
    "lat": 48.4687180609,
    "lng": 7.02039270494
  },
  {
    "ville": "Allas Bocage",
    "code": "17150",
    "lat": 45.3827600659,
    "lng": -0.497845683209
  },
  {
    "ville": "Allas Champagne",
    "code": "17500",
    "lat": 45.4726406982,
    "lng": -0.339612863623
  },
  {
    "ville": "Allas Les Mines",
    "code": "24220",
    "lat": 44.828046683,
    "lng": 1.07371384285
  },
  {
    "ville": "Allassac",
    "code": "19240",
    "lat": 45.2556220149,
    "lng": 1.46918061552
  },
  {
    "ville": "Allauch",
    "code": "13190",
    "lat": 43.3533145712,
    "lng": 5.51134767187
  },
  {
    "ville": "Allegre",
    "code": "43270",
    "lat": 45.1884321561,
    "lng": 3.68990996082
  },
  {
    "ville": "Allegre Les Fumades",
    "code": "30500",
    "lat": 44.1976013658,
    "lng": 4.25339592955
  },
  {
    "ville": "Alleins",
    "code": "13980",
    "lat": 43.7074197745,
    "lng": 5.15105029207
  },
  {
    "ville": "Allemagne En Provence",
    "code": "04500",
    "lat": 43.7887902464,
    "lng": 6.03091832001
  },
  {
    "ville": "Allemanche Launay Et Soyer",
    "code": "51260",
    "lat": 48.6066890182,
    "lng": 3.79098671125
  },
  {
    "ville": "Allemans",
    "code": "24600",
    "lat": 45.288412571,
    "lng": 0.305272710344
  },
  {
    "ville": "Allemans Du Dropt",
    "code": "47800",
    "lat": 44.6231983139,
    "lng": 0.286538311278
  },
  {
    "ville": "Allemant",
    "code": "02320",
    "lat": 49.4624440593,
    "lng": 3.45394275872
  },
  {
    "ville": "Allemant",
    "code": "51120",
    "lat": 48.7615346017,
    "lng": 3.8160207846
  },
  {
    "ville": "Allemond",
    "code": "38114",
    "lat": 45.1710812431,
    "lng": 6.01841266014
  },
  {
    "ville": "Allenay",
    "code": "80130",
    "lat": 50.0864703319,
    "lng": 1.49294201709
  },
  {
    "ville": "Allenc",
    "code": "48190",
    "lat": 44.5522761044,
    "lng": 3.67650603753
  },
  {
    "ville": "Allenjoie",
    "code": "25490",
    "lat": 47.5354537745,
    "lng": 6.8931467059
  },
  {
    "ville": "Allennes Les Marais",
    "code": "59251",
    "lat": 50.5417063572,
    "lng": 2.94865877262
  },
  {
    "ville": "Allerey",
    "code": "21230",
    "lat": 47.1905039427,
    "lng": 4.42062511101
  },
  {
    "ville": "Allerey Sur Saone",
    "code": "71350",
    "lat": 46.9138309803,
    "lng": 4.97484420794
  },
  {
    "ville": "Alleriot",
    "code": "71380",
    "lat": 46.7988419834,
    "lng": 4.95551290173
  },
  {
    "ville": "Allery",
    "code": "80270",
    "lat": 49.9594164117,
    "lng": 1.88551094402
  },
  {
    "ville": "Alles Sur Dordogne",
    "code": "24480",
    "lat": 44.861392005,
    "lng": 0.874642007489
  },
  {
    "ville": "Alleuze",
    "code": "15100",
    "lat": 44.9602873313,
    "lng": 3.09831933936
  },
  {
    "ville": "Allevard",
    "code": "38580",
    "lat": 45.3798822282,
    "lng": 6.11410440285
  },
  {
    "ville": "Alleves",
    "code": "74540",
    "lat": 45.7588655872,
    "lng": 6.08634740225
  },
  {
    "ville": "Allex",
    "code": "26400",
    "lat": 44.7665515552,
    "lng": 4.91520351074
  },
  {
    "ville": "Alleyrac",
    "code": "43150",
    "lat": 44.8944815222,
    "lng": 3.98915009385
  },
  {
    "ville": "Alleyras",
    "code": "43580",
    "lat": 44.9071449693,
    "lng": 3.68020035357
  },
  {
    "ville": "Alleyrat",
    "code": "19200",
    "lat": 45.5636726085,
    "lng": 2.21836208439
  },
  {
    "ville": "Alleyrat",
    "code": "23200",
    "lat": 45.9878416933,
    "lng": 2.15421492891
  },
  {
    "ville": "Allez Et Cazeneuve",
    "code": "47110",
    "lat": 44.3819408307,
    "lng": 0.628501205807
  },
  {
    "ville": "Alliancelles",
    "code": "51250",
    "lat": 48.8033869619,
    "lng": 4.87418519758
  },
  {
    "ville": "Alliat",
    "code": "09400",
    "lat": 42.8159020056,
    "lng": 1.58114167435
  },
  {
    "ville": "Allibaudieres",
    "code": "10700",
    "lat": 48.5863997964,
    "lng": 4.12292771236
  },
  {
    "ville": "Allichamps",
    "code": "52130",
    "lat": 48.5636922014,
    "lng": 4.88629237794
  },
  {
    "ville": "Allier",
    "code": "65360",
    "lat": 43.1800492737,
    "lng": 0.126791065309
  },
  {
    "ville": "Allieres",
    "code": "09240",
    "lat": 43.0385438599,
    "lng": 1.36390734959
  },
  {
    "ville": "Alligny Cosne",
    "code": "58200",
    "lat": 47.4435756978,
    "lng": 3.07325894698
  },
  {
    "ville": "Alligny En Morvan",
    "code": "58230",
    "lat": 47.2097168429,
    "lng": 4.17338633235
  },
  {
    "ville": "Allineuc",
    "code": "22460",
    "lat": 48.3113091496,
    "lng": -2.86736098744
  },
  {
    "ville": "Allinges",
    "code": "74200",
    "lat": 46.333709028,
    "lng": 6.46512142751
  },
  {
    "ville": "Allogny",
    "code": "18110",
    "lat": 47.2339866645,
    "lng": 2.30681136882
  },
  {
    "ville": "Allondans",
    "code": "25550",
    "lat": 47.5223475188,
    "lng": 6.75133390116
  },
  {
    "ville": "Allondaz",
    "code": "73200",
    "lat": 45.7116530326,
    "lng": 6.37223835121
  },
  {
    "ville": "Allondrelle La Malmaison",
    "code": "54260",
    "lat": 49.5106931001,
    "lng": 5.5687752244
  },
  {
    "ville": "Allonne",
    "code": "60000",
    "lat": 49.3965343512,
    "lng": 2.11883442492
  },
  {
    "ville": "Allonne",
    "code": "79130",
    "lat": 46.5804441397,
    "lng": -0.38171869398
  },
  {
    "ville": "Allonnes",
    "code": "28150",
    "lat": 48.3316342289,
    "lng": 1.65200413227
  },
  {
    "ville": "Allonnes",
    "code": "49650",
    "lat": 47.3034746947,
    "lng": 0.0111127082363
  },
  {
    "ville": "Allonnes",
    "code": "72700",
    "lat": 47.9589683966,
    "lng": 0.143770981533
  },
  {
    "ville": "Allons",
    "code": "04170",
    "lat": 43.9803884973,
    "lng": 6.59032744238
  },
  {
    "ville": "Allons",
    "code": "47420",
    "lat": 44.1933826797,
    "lng": -0.0800075386017
  },
  {
    "ville": "Allonville",
    "code": "80260",
    "lat": 49.9379400536,
    "lng": 2.3677741824
  },
  {
    "ville": "Allonzier La Caille",
    "code": "74350",
    "lat": 46.000527699,
    "lng": 6.10482048689
  },
  {
    "ville": "Allos",
    "code": "04260",
    "lat": 44.2614961379,
    "lng": 6.62671789984
  },
  {
    "ville": "Allouagne",
    "code": "62157",
    "lat": 50.5322320704,
    "lng": 2.50493799409
  },
  {
    "ville": "Alloue",
    "code": "16490",
    "lat": 46.0204552645,
    "lng": 0.5258351895
  },
  {
    "ville": "Allouis",
    "code": "18500",
    "lat": 47.1778132314,
    "lng": 2.24096841873
  },
  {
    "ville": "Allouville Bellefosse",
    "code": "76190",
    "lat": 49.5946409573,
    "lng": 0.665436022637
  },
  {
    "ville": "Alluy",
    "code": "58110",
    "lat": 47.0338777551,
    "lng": 3.63261778008
  },
  {
    "ville": "Alluyes",
    "code": "28800",
    "lat": 48.2289582761,
    "lng": 1.36379289637
  },
  {
    "ville": "Ally",
    "code": "15700",
    "lat": 45.1644412736,
    "lng": 2.32569985798
  },
  {
    "ville": "Ally",
    "code": "43380",
    "lat": 45.1502850873,
    "lng": 3.3167176948
  },
  {
    "ville": "Almayrac",
    "code": "81190",
    "lat": 44.0989296815,
    "lng": 2.155985909
  },
  {
    "ville": "Almeneches",
    "code": "61570",
    "lat": 48.6982248016,
    "lng": 0.125681370095
  },
  {
    "ville": "Almont Les Junies",
    "code": "12300",
    "lat": 44.6009371852,
    "lng": 2.31097212819
  },
  {
    "ville": "Alos",
    "code": "09200",
    "lat": 42.8984884142,
    "lng": 1.12940450041
  },
  {
    "ville": "Alos",
    "code": "81140",
    "lat": 44.0205135175,
    "lng": 1.87448422002
  },
  {
    "ville": "Alos Sibas Abense",
    "code": "64470",
    "lat": 43.1129165102,
    "lng": -0.877966906276
  },
  {
    "ville": "Aloxe Corton",
    "code": "21420",
    "lat": 47.0682393129,
    "lng": 4.86123205088
  },
  {
    "ville": "Alquines",
    "code": "62850",
    "lat": 50.7335685811,
    "lng": 1.99279258078
  },
  {
    "ville": "Alrance",
    "code": "12430",
    "lat": 44.1352241599,
    "lng": 2.67560444399
  },
  {
    "ville": "Alsting",
    "code": "57515",
    "lat": 49.180492978,
    "lng": 7.00110743227
  },
  {
    "ville": "Altagene",
    "code": "20112",
    "lat": 41.7091975922,
    "lng": 9.07705100575
  },
  {
    "ville": "Alteckendorf",
    "code": "67270",
    "lat": 48.7944549979,
    "lng": 7.59641028848
  },
  {
    "ville": "Altenach",
    "code": "68210",
    "lat": 47.6017527449,
    "lng": 7.10896561686
  },
  {
    "ville": "Altenheim",
    "code": "67490",
    "lat": 48.7200663423,
    "lng": 7.46240989793
  },
  {
    "ville": "Althen Des Paluds",
    "code": "84210",
    "lat": 44.0048087082,
    "lng": 4.95793804186
  },
  {
    "ville": "Altiani",
    "code": "20251",
    "lat": 42.2194492715,
    "lng": 9.27831968193
  },
  {
    "ville": "Altier",
    "code": "48800",
    "lat": 44.459680191,
    "lng": 3.85680054017
  },
  {
    "ville": "Altillac",
    "code": "19120",
    "lat": 44.9804416467,
    "lng": 1.86889705524
  },
  {
    "ville": "Altkirch",
    "code": "68130",
    "lat": 47.6210336538,
    "lng": 7.24484329622
  },
  {
    "ville": "Altorf",
    "code": "67120",
    "lat": 48.5247239067,
    "lng": 7.53898226259
  },
  {
    "ville": "Altrippe",
    "code": "57660",
    "lat": 49.0273733411,
    "lng": 6.81555740492
  },
  {
    "ville": "Altviller",
    "code": "57730",
    "lat": 49.0689443074,
    "lng": 6.73140491187
  },
  {
    "ville": "Altwiller",
    "code": "67260",
    "lat": 48.9155179716,
    "lng": 6.97971818024
  },
  {
    "ville": "Aluze",
    "code": "71510",
    "lat": 46.8518515249,
    "lng": 4.6901351827
  },
  {
    "ville": "Alvignac",
    "code": "46500",
    "lat": 44.8338975947,
    "lng": 1.68546472783
  },
  {
    "ville": "Alvimare",
    "code": "76640",
    "lat": 49.6071633233,
    "lng": 0.63205346079
  },
  {
    "ville": "Alzen",
    "code": "09240",
    "lat": 42.9813926821,
    "lng": 1.45571678885
  },
  {
    "ville": "Alzi",
    "code": "20212",
    "lat": 42.312646335,
    "lng": 9.3147546564
  },
  {
    "ville": "Alzing",
    "code": "57320",
    "lat": 49.2764757176,
    "lng": 6.55325896948
  },
  {
    "ville": "Alzon",
    "code": "30770",
    "lat": 43.9742117823,
    "lng": 3.44750179641
  },
  {
    "ville": "Alzonne",
    "code": "11170",
    "lat": 43.2652998624,
    "lng": 2.17459434048
  },
  {
    "ville": "Amage",
    "code": "70280",
    "lat": 47.8456233844,
    "lng": 6.49802124714
  },
  {
    "ville": "Amagne",
    "code": "08300",
    "lat": 49.5164052633,
    "lng": 4.50308478101
  },
  {
    "ville": "Amagney",
    "code": "25220",
    "lat": 47.3053386559,
    "lng": 6.14827312973
  },
  {
    "ville": "Amailloux",
    "code": "79350",
    "lat": 46.7494537565,
    "lng": -0.313467938365
  },
  {
    "ville": "Amance",
    "code": "10140",
    "lat": 48.2918540736,
    "lng": 4.4870489216
  },
  {
    "ville": "Amance",
    "code": "54770",
    "lat": 48.754963401,
    "lng": 6.30928287834
  },
  {
    "ville": "Amance",
    "code": "70160",
    "lat": 47.7905088546,
    "lng": 6.05331685795
  },
  {
    "ville": "Amancey",
    "code": "25330",
    "lat": 47.0311972081,
    "lng": 6.07639327081
  },
  {
    "ville": "Amancy",
    "code": "74800",
    "lat": 46.0728257803,
    "lng": 6.33057376854
  },
  {
    "ville": "Amange",
    "code": "39700",
    "lat": 47.1669744984,
    "lng": 5.5649107588
  },
  {
    "ville": "Amanlis",
    "code": "35150",
    "lat": 47.9998215771,
    "lng": -1.495562097
  },
  {
    "ville": "Amanty",
    "code": "55130",
    "lat": 48.5151526576,
    "lng": 5.60410565546
  },
  {
    "ville": "Amanvillers",
    "code": "57865",
    "lat": 49.1595048977,
    "lng": 6.04632244195
  },
  {
    "ville": "Amanze",
    "code": "71800",
    "lat": 46.3264716768,
    "lng": 4.23626914802
  },
  {
    "ville": "Amarens",
    "code": "81170",
    "lat": 44.0438938289,
    "lng": 1.92108502728
  },
  {
    "ville": "Amathay Vesigneux",
    "code": "25330",
    "lat": 47.0231471184,
    "lng": 6.19580927282
  },
  {
    "ville": "Amaye Sur Orne",
    "code": "14210",
    "lat": 49.0911214253,
    "lng": -0.434224922695
  },
  {
    "ville": "Amaye Sur Seulles",
    "code": "14310",
    "lat": 49.0820646121,
    "lng": -0.717699539626
  },
  {
    "ville": "Amazy",
    "code": "58190",
    "lat": 47.3830839935,
    "lng": 3.56104962023
  },
  {
    "ville": "Ambacourt",
    "code": "88500",
    "lat": 48.3519571223,
    "lng": 6.13963930684
  },
  {
    "ville": "Ambares Et Lagrave",
    "code": "33440",
    "lat": 44.9444897713,
    "lng": -0.500579133995
  },
  {
    "ville": "Ambax",
    "code": "31230",
    "lat": 43.3680277125,
    "lng": 0.937034657846
  },
  {
    "ville": "Ambazac",
    "code": "87240",
    "lat": 45.9534226621,
    "lng": 1.39930873296
  },
  {
    "ville": "Ambel",
    "code": "38970",
    "lat": 44.7995432334,
    "lng": 5.93325975329
  },
  {
    "ville": "Ambenay",
    "code": "27250",
    "lat": 48.8402151816,
    "lng": 0.73972567335
  },
  {
    "ville": "Amberac",
    "code": "16140",
    "lat": 45.8562404894,
    "lng": 0.0591293874218
  },
  {
    "ville": "Amberieu En Bugey",
    "code": "01500",
    "lat": 45.9608475114,
    "lng": 5.3729257777
  },
  {
    "ville": "Amberieux",
    "code": "69480",
    "lat": 45.9288848222,
    "lng": 4.74109023714
  },
  {
    "ville": "Amberieux En Dombes",
    "code": "01330",
    "lat": 45.9961799872,
    "lng": 4.91227250796
  },
  {
    "ville": "Ambernac",
    "code": "16490",
    "lat": 45.9747688433,
    "lng": 0.556409302245
  },
  {
    "ville": "Amberre",
    "code": "86110",
    "lat": 46.7578511349,
    "lng": 0.153603662903
  },
  {
    "ville": "Ambert",
    "code": "63600",
    "lat": 45.5557839461,
    "lng": 3.75625356567
  },
  {
    "ville": "Ambes",
    "code": "33810",
    "lat": 45.0115337381,
    "lng": -0.548307688841
  },
  {
    "ville": "Ambeyrac",
    "code": "12260",
    "lat": 44.4943534957,
    "lng": 1.9357162857
  },
  {
    "ville": "Ambialet",
    "code": "81430",
    "lat": 43.9263758841,
    "lng": 2.37579999159
  },
  {
    "ville": "Ambiegna",
    "code": "20151",
    "lat": 42.0878005416,
    "lng": 8.77383533017
  },
  {
    "ville": "Ambierle",
    "code": "42820",
    "lat": 46.1059597472,
    "lng": 3.89158878833
  },
  {
    "ville": "Ambievillers",
    "code": "70210",
    "lat": 47.9958871896,
    "lng": 6.14035780584
  },
  {
    "ville": "Ambillou",
    "code": "37340",
    "lat": 47.4520562833,
    "lng": 0.446595189261
  },
  {
    "ville": "Ambilly",
    "code": "74100",
    "lat": 46.1961567042,
    "lng": 6.22429975401
  },
  {
    "ville": "Amblainville",
    "code": "60110",
    "lat": 49.2071001179,
    "lng": 2.12057880418
  },
  {
    "ville": "Amblans Et Velotte",
    "code": "70200",
    "lat": 47.6809699822,
    "lng": 6.41769484638
  },
  {
    "ville": "Ambleny",
    "code": "02290",
    "lat": 49.3762672939,
    "lng": 3.18334679178
  },
  {
    "ville": "Ambleon",
    "code": "01300",
    "lat": 45.7494989044,
    "lng": 5.59432017366
  },
  {
    "ville": "Ambleteuse",
    "code": "62164",
    "lat": 50.8115899636,
    "lng": 1.62108848626
  },
  {
    "ville": "Ambleville",
    "code": "16300",
    "lat": 45.5581634832,
    "lng": -0.224518438236
  },
  {
    "ville": "Ambleville",
    "code": "95420",
    "lat": 49.1509533273,
    "lng": 1.69495333477
  },
  {
    "ville": "Ambleville",
    "code": "95710",
    "lat": 49.1509533273,
    "lng": 1.69495333477
  },
  {
    "ville": "Amblie",
    "code": "14480",
    "lat": 49.2848897685,
    "lng": -0.501466969459
  },
  {
    "ville": "Ambloy",
    "code": "41310",
    "lat": 47.7092016541,
    "lng": 0.969332418982
  },
  {
    "ville": "Ambly Fleury",
    "code": "08130",
    "lat": 49.4891172634,
    "lng": 4.48932267943
  },
  {
    "ville": "Ambly Sur Meuse",
    "code": "55300",
    "lat": 49.0225781961,
    "lng": 5.45226054579
  },
  {
    "ville": "Amboise",
    "code": "37400",
    "lat": 47.3917237652,
    "lng": 1.00023994675
  },
  {
    "ville": "Ambon",
    "code": "56190",
    "lat": 47.5570972136,
    "lng": -2.54057380669
  },
  {
    "ville": "Ambonil",
    "code": "26800",
    "lat": 44.7918323658,
    "lng": 4.90939338153
  },
  {
    "ville": "Ambonnay",
    "code": "51150",
    "lat": 49.08689493,
    "lng": 4.17217235053
  },
  {
    "ville": "Ambonville",
    "code": "52110",
    "lat": 48.3139710416,
    "lng": 5.01062838373
  },
  {
    "ville": "Ambrault",
    "code": "36120",
    "lat": 46.7837338524,
    "lng": 1.94971417939
  },
  {
    "ville": "Ambres",
    "code": "81500",
    "lat": 43.7287344791,
    "lng": 1.83182396743
  },
  {
    "ville": "Ambricourt",
    "code": "62310",
    "lat": 50.4655698983,
    "lng": 2.17120117891
  },
  {
    "ville": "Ambrief",
    "code": "02200",
    "lat": 49.3215250088,
    "lng": 3.40362196255
  },
  {
    "ville": "Ambrieres",
    "code": "51290",
    "lat": 48.629003135,
    "lng": 4.82923701475
  },
  {
    "ville": "Ambrieres Les Vallees",
    "code": "53300",
    "lat": 48.4227200634,
    "lng": -0.624160085775
  },
  {
    "ville": "Ambrines",
    "code": "62127",
    "lat": 50.3081142295,
    "lng": 2.46698289083
  },
  {
    "ville": "Ambronay",
    "code": "01500",
    "lat": 46.0055913782,
    "lng": 5.35760660735
  },
  {
    "ville": "Ambrugeat",
    "code": "19250",
    "lat": 45.5322152367,
    "lng": 2.0852662893
  },
  {
    "ville": "Ambrumesnil",
    "code": "76550",
    "lat": 49.8584810142,
    "lng": 0.983755211163
  },
  {
    "ville": "Ambrus",
    "code": "47160",
    "lat": 44.2306453539,
    "lng": 0.246322512881
  },
  {
    "ville": "Ambutrix",
    "code": "01500",
    "lat": 45.9367134524,
    "lng": 5.3328092349
  },
  {
    "ville": "Amecourt",
    "code": "27140",
    "lat": 49.3767401093,
    "lng": 1.7332985708
  },
  {
    "ville": "Amel Sur L Etang",
    "code": "55230",
    "lat": 49.2572264224,
    "lng": 5.64725124448
  },
  {
    "ville": "Amelecourt",
    "code": "57170",
    "lat": 48.8406895704,
    "lng": 6.48798103824
  },
  {
    "ville": "Amelie Les Bains Palalda",
    "code": "66110",
    "lat": 42.4436859079,
    "lng": 2.68338432052
  },
  {
    "ville": "Amendeuix Oneix",
    "code": "64120",
    "lat": 43.3445045858,
    "lng": -1.04369537456
  },
  {
    "ville": "Amenoncourt",
    "code": "54450",
    "lat": 48.6300704003,
    "lng": 6.78443520767
  },
  {
    "ville": "Amenucourt",
    "code": "95510",
    "lat": 49.11033118,
    "lng": 1.65004984269
  },
  {
    "ville": "Ames",
    "code": "62190",
    "lat": 50.5355497519,
    "lng": 2.41535244184
  },
  {
    "ville": "Amettes",
    "code": "62260",
    "lat": 50.5270054766,
    "lng": 2.39396099687
  },
  {
    "ville": "Ameugny",
    "code": "71460",
    "lat": 46.5238475796,
    "lng": 4.66808403552
  },
  {
    "ville": "Ameuvelle",
    "code": "88410",
    "lat": 47.9496470575,
    "lng": 5.95257004647
  },
  {
    "ville": "Amfreville",
    "code": "14860",
    "lat": 49.2501431721,
    "lng": -0.241578864111
  },
  {
    "ville": "Amfreville La Mi Voie",
    "code": "76920",
    "lat": 49.4044285564,
    "lng": 1.12471250441
  },
  {
    "ville": "Amfreville Les Champs",
    "code": "27380",
    "lat": 49.3126551036,
    "lng": 1.32149788001
  },
  {
    "ville": "Amfreville Les Champs",
    "code": "76560",
    "lat": 49.6985248041,
    "lng": 0.826235482496
  },
  {
    "ville": "Amfreville Sous Les Monts",
    "code": "27380",
    "lat": 49.3028161633,
    "lng": 1.26637402141
  },
  {
    "ville": "Amfreville St Amand",
    "code": "27370",
    "lat": 49.2130667488,
    "lng": 0.925129802159
  },
  {
    "ville": "Amfreville Sur Iton",
    "code": "27400",
    "lat": 49.1567317794,
    "lng": 1.14647315258
  },
  {
    "ville": "Amfroipret",
    "code": "59144",
    "lat": 50.2776390302,
    "lng": 3.73565394566
  },
  {
    "ville": "Amiens",
    "code": "80000",
    "lat": 49.9009532186,
    "lng": 2.29007445539
  },
  {
    "ville": "Amiens",
    "code": "80080",
    "lat": 49.9009532186,
    "lng": 2.29007445539
  },
  {
    "ville": "Amiens",
    "code": "80090",
    "lat": 49.9009532186,
    "lng": 2.29007445539
  },
  {
    "ville": "Amifontaine",
    "code": "02190",
    "lat": 49.498787026,
    "lng": 3.92278993322
  },
  {
    "ville": "Amigny",
    "code": "50620",
    "lat": 49.1568470769,
    "lng": -1.18525646512
  },
  {
    "ville": "Amigny Rouy",
    "code": "02700",
    "lat": 49.6108275885,
    "lng": 3.30289341579
  },
  {
    "ville": "Amillis",
    "code": "77120",
    "lat": 48.7355504117,
    "lng": 3.13534283623
  },
  {
    "ville": "Amilly",
    "code": "28300",
    "lat": 48.4423011417,
    "lng": 1.40659215552
  },
  {
    "ville": "Amilly",
    "code": "45200",
    "lat": 47.9867116879,
    "lng": 2.78217519303
  },
  {
    "ville": "Amions",
    "code": "42260",
    "lat": 45.8770079561,
    "lng": 4.04077213225
  },
  {
    "ville": "Amirat",
    "code": "06910",
    "lat": 43.8962973508,
    "lng": 6.81255950456
  },
  {
    "ville": "Ammerschwihr",
    "code": "68410",
    "lat": 48.119478992,
    "lng": 7.25998332176
  },
  {
    "ville": "Ammerschwihr",
    "code": "68770",
    "lat": 48.119478992,
    "lng": 7.25998332176
  },
  {
    "ville": "Ammertzwiller",
    "code": "68210",
    "lat": 47.6926147527,
    "lng": 7.16944522071
  },
  {
    "ville": "Amne",
    "code": "72540",
    "lat": 48.0403287811,
    "lng": -0.0436682297545
  },
  {
    "ville": "Amneville",
    "code": "57360",
    "lat": 49.2396972255,
    "lng": 6.09947450041
  },
  {
    "ville": "Amoncourt",
    "code": "70170",
    "lat": 47.7347259725,
    "lng": 6.06263685163
  },
  {
    "ville": "Amondans",
    "code": "25330",
    "lat": 47.0715292841,
    "lng": 6.03510768705
  },
  {
    "ville": "Amont Et Effreney",
    "code": "70310",
    "lat": 47.8672344964,
    "lng": 6.56250054881
  },
  {
    "ville": "Amorots Succos",
    "code": "64120",
    "lat": 43.3625512592,
    "lng": -1.12435569273
  },
  {
    "ville": "Amou",
    "code": "40330",
    "lat": 43.5938659835,
    "lng": -0.743678079626
  },
  {
    "ville": "Ampilly Le Sec",
    "code": "21400",
    "lat": 47.8100690603,
    "lng": 4.50329961504
  },
  {
    "ville": "Ampilly Les Bordes",
    "code": "21450",
    "lat": 47.6389194024,
    "lng": 4.62698815562
  },
  {
    "ville": "Amplepuis",
    "code": "69550",
    "lat": 45.9651984924,
    "lng": 4.32676291669
  },
  {
    "ville": "Amplier",
    "code": "62760",
    "lat": 50.1381261668,
    "lng": 2.39740510092
  },
  {
    "ville": "Ampoigne",
    "code": "53200",
    "lat": 47.8051436119,
    "lng": -0.823338302617
  },
  {
    "ville": "Amponville",
    "code": "77760",
    "lat": 48.2874371683,
    "lng": 2.53069073747
  },
  {
    "ville": "Ampriani",
    "code": "20272",
    "lat": 42.2536571506,
    "lng": 9.35731976414
  },
  {
    "ville": "Ampuis",
    "code": "69420",
    "lat": 45.503261775,
    "lng": 4.8031868522
  },
  {
    "ville": "Ampus",
    "code": "83111",
    "lat": 43.628363684,
    "lng": 6.3718765021
  },
  {
    "ville": "Amure",
    "code": "79210",
    "lat": 46.2569032806,
    "lng": -0.608681235963
  },
  {
    "ville": "Amy",
    "code": "60310",
    "lat": 49.6414081201,
    "lng": 2.83395091808
  },
  {
    "ville": "Anais",
    "code": "16560",
    "lat": 45.7689915038,
    "lng": 0.206024179916
  },
  {
    "ville": "Anais",
    "code": "17540",
    "lat": 46.175505871,
    "lng": -0.904331941311
  },
  {
    "ville": "Anan",
    "code": "31230",
    "lat": 43.3522518749,
    "lng": 0.810075633308
  },
  {
    "ville": "Ance",
    "code": "64570",
    "lat": 43.1445987386,
    "lng": -0.687615665018
  },
  {
    "ville": "Anceaumeville",
    "code": "76710",
    "lat": 49.5695149287,
    "lng": 1.06535432644
  },
  {
    "ville": "Ancelle",
    "code": "05260",
    "lat": 44.6190703929,
    "lng": 6.22962169969
  },
  {
    "ville": "Ancemont",
    "code": "55320",
    "lat": 49.0649831287,
    "lng": 5.38366026137
  },
  {
    "ville": "Ancenis",
    "code": "44150",
    "lat": 47.3833270209,
    "lng": -1.18241880879
  },
  {
    "ville": "Ancerville",
    "code": "55170",
    "lat": 48.6399125992,
    "lng": 5.02373888302
  },
  {
    "ville": "Ancerville",
    "code": "57580",
    "lat": 49.032956145,
    "lng": 6.39803240304
  },
  {
    "ville": "Ancerviller",
    "code": "54450",
    "lat": 48.5333635859,
    "lng": 6.83699257631
  },
  {
    "ville": "Ancey",
    "code": "21410",
    "lat": 47.3337177684,
    "lng": 4.82268168932
  },
  {
    "ville": "Anchamps",
    "code": "08500",
    "lat": 49.9247359313,
    "lng": 4.66426745168
  },
  {
    "ville": "Anche",
    "code": "37500",
    "lat": 47.1322445676,
    "lng": 0.307767797978
  },
  {
    "ville": "Anche",
    "code": "86700",
    "lat": 46.3496375961,
    "lng": 0.270285912605
  },
  {
    "ville": "Anchenoncourt Et Chazel",
    "code": "70210",
    "lat": 47.861727458,
    "lng": 6.11528633916
  },
  {
    "ville": "Ancienville",
    "code": "02600",
    "lat": 49.2186389559,
    "lng": 3.20808809779
  },
  {
    "ville": "Ancier",
    "code": "70100",
    "lat": 47.4440990959,
    "lng": 5.63641501518
  },
  {
    "ville": "Ancinnes",
    "code": "72610",
    "lat": 48.3603390007,
    "lng": 0.173826931122
  },
  {
    "ville": "Ancizan",
    "code": "65440",
    "lat": 42.8993345679,
    "lng": 0.283796847933
  },
  {
    "ville": "Ancone",
    "code": "26200",
    "lat": 44.5798033579,
    "lng": 4.72035521485
  },
  {
    "ville": "Ancourt",
    "code": "76370",
    "lat": 49.9085547953,
    "lng": 1.17898885458
  },
  {
    "ville": "Ancourteville Sur Hericourt",
    "code": "76560",
    "lat": 49.6907478864,
    "lng": 0.660651271131
  },
  {
    "ville": "Ancretieville St Victor",
    "code": "76760",
    "lat": 49.6545166114,
    "lng": 0.967454665493
  },
  {
    "ville": "Ancretteville Sur Mer",
    "code": "76540",
    "lat": 49.7892649687,
    "lng": 0.504203868088
  },
  {
    "ville": "Ancteville",
    "code": "50200",
    "lat": 49.1030446695,
    "lng": -1.45942313558
  },
  {
    "ville": "Anctoville",
    "code": "14240",
    "lat": 49.1129887811,
    "lng": -0.690829418472
  },
  {
    "ville": "Anctoville Sur Boscq",
    "code": "50400",
    "lat": 48.8461317815,
    "lng": -1.52840505005
  },
  {
    "ville": "Ancy",
    "code": "69490",
    "lat": 45.8321615079,
    "lng": 4.50376874726
  },
  {
    "ville": "Ancy Dornot",
    "code": "57130",
    "lat": 49.0653836521,
    "lng": 6.04477980667
  },
  {
    "ville": "Ancy Le Franc",
    "code": "89160",
    "lat": 47.7772837074,
    "lng": 4.16461279806
  },
  {
    "ville": "Ancy Le Libre",
    "code": "89160",
    "lat": 47.8056331303,
    "lng": 4.14511090809
  },
  {
    "ville": "Andainville",
    "code": "80140",
    "lat": 49.8911987998,
    "lng": 1.78468035475
  },
  {
    "ville": "Andance",
    "code": "07340",
    "lat": 45.2279590632,
    "lng": 4.79738593664
  },
  {
    "ville": "Andancette",
    "code": "26140",
    "lat": 45.2464246163,
    "lng": 4.81244292927
  },
  {
    "ville": "Ande",
    "code": "27430",
    "lat": 49.2280273549,
    "lng": 1.24535712004
  },
  {
    "ville": "Andechy",
    "code": "80700",
    "lat": 49.7147246952,
    "lng": 2.70662674377
  },
  {
    "ville": "Andel",
    "code": "22400",
    "lat": 48.4944929623,
    "lng": -2.55104146851
  },
  {
    "ville": "Andelain",
    "code": "02800",
    "lat": 49.6411808161,
    "lng": 3.3695440898
  },
  {
    "ville": "Andelaroche",
    "code": "03120",
    "lat": 46.2501153137,
    "lng": 3.74613192809
  },
  {
    "ville": "Andelarre",
    "code": "70000",
    "lat": 47.5902572051,
    "lng": 6.09074936306
  },
  {
    "ville": "Andelarrot",
    "code": "70000",
    "lat": 47.5782409483,
    "lng": 6.09869200788
  },
  {
    "ville": "Andelat",
    "code": "15100",
    "lat": 45.0699830319,
    "lng": 3.05933407794
  },
  {
    "ville": "Andelnans",
    "code": "90400",
    "lat": 47.6031655316,
    "lng": 6.86569831996
  },
  {
    "ville": "Andelot Blancheville",
    "code": "52700",
    "lat": 48.2358357276,
    "lng": 5.28592728312
  },
  {
    "ville": "Andelot En Montagne",
    "code": "39110",
    "lat": 46.8591094265,
    "lng": 5.9289781242
  },
  {
    "ville": "Andelot Morval",
    "code": "39320",
    "lat": 46.4237585921,
    "lng": 5.42679898961
  },
  {
    "ville": "Andelu",
    "code": "78770",
    "lat": 48.8882282833,
    "lng": 1.81107773324
  },
  {
    "ville": "Andernay",
    "code": "55800",
    "lat": 48.783786876,
    "lng": 4.95243588603
  },
  {
    "ville": "Andernos Les Bains",
    "code": "33510",
    "lat": 44.754520164,
    "lng": -1.08109347037
  },
  {
    "ville": "Anderny",
    "code": "54560",
    "lat": 49.3356448662,
    "lng": 5.88195094203
  },
  {
    "ville": "Andert Et Condon",
    "code": "01300",
    "lat": 45.7873565333,
    "lng": 5.65788307924
  },
  {
    "ville": "Andeville",
    "code": "60570",
    "lat": 49.257573184,
    "lng": 2.16834997777
  },
  {
    "ville": "Andillac",
    "code": "81140",
    "lat": 44.0051181728,
    "lng": 1.89353888985
  },
  {
    "ville": "Andilly",
    "code": "17230",
    "lat": 46.2630044811,
    "lng": -1.01765756102
  },
  {
    "ville": "Andilly",
    "code": "54200",
    "lat": 48.7670812602,
    "lng": 5.88801466262
  },
  {
    "ville": "Andilly",
    "code": "74350",
    "lat": 46.0702115695,
    "lng": 6.0710017836
  },
  {
    "ville": "Andilly",
    "code": "95580",
    "lat": 49.0084088051,
    "lng": 2.30277335813
  },
  {
    "ville": "Andilly En Bassigny",
    "code": "52360",
    "lat": 47.9283690025,
    "lng": 5.52049253052
  },
  {
    "ville": "Andiran",
    "code": "47170",
    "lat": 44.1023256865,
    "lng": 0.285513474394
  },
  {
    "ville": "Andlau",
    "code": "67140",
    "lat": 48.3907003871,
    "lng": 7.38488102933
  },
  {
    "ville": "Andoins",
    "code": "64420",
    "lat": 43.3003317348,
    "lng": -0.223135510504
  },
  {
    "ville": "Andolsheim",
    "code": "68280",
    "lat": 48.0652206217,
    "lng": 7.43654259206
  },
  {
    "ville": "Andon",
    "code": "06750",
    "lat": 43.7769856778,
    "lng": 6.82318647257
  },
  {
    "ville": "Andonville",
    "code": "45480",
    "lat": 48.2740984762,
    "lng": 2.02318881395
  },
  {
    "ville": "Andornay",
    "code": "70200",
    "lat": 47.6586648001,
    "lng": 6.59842406878
  },
  {
    "ville": "Andouille",
    "code": "53240",
    "lat": 48.1771432995,
    "lng": -0.792693064482
  },
  {
    "ville": "Andouille Neuville",
    "code": "35250",
    "lat": 48.2975724468,
    "lng": -1.5958926629
  },
  {
    "ville": "Andouque",
    "code": "81350",
    "lat": 44.0085365227,
    "lng": 2.30256637897
  },
  {
    "ville": "Andrein",
    "code": "64390",
    "lat": 43.3997122836,
    "lng": -0.889281632405
  },
  {
    "ville": "Andres",
    "code": "62340",
    "lat": 50.8658312835,
    "lng": 1.91824266934
  },
  {
    "ville": "Andrest",
    "code": "65390",
    "lat": 43.3162323845,
    "lng": 0.0661292310469
  },
  {
    "ville": "Andresy",
    "code": "78570",
    "lat": 48.9815454378,
    "lng": 2.05025746939
  },
  {
    "ville": "Andrezel",
    "code": "77390",
    "lat": 48.6145967279,
    "lng": 2.8066323497
  },
  {
    "ville": "Andrezieux Boutheon",
    "code": "42160",
    "lat": 45.5349913099,
    "lng": 4.27650426979
  },
  {
    "ville": "Andryes",
    "code": "89480",
    "lat": 47.5302279519,
    "lng": 3.46612181132
  },
  {
    "ville": "Anduze",
    "code": "30140",
    "lat": 44.0507893674,
    "lng": 3.97484165309
  },
  {
    "ville": "Aneres",
    "code": "65150",
    "lat": 43.0760669312,
    "lng": 0.464444450073
  },
  {
    "ville": "Anet",
    "code": "28260",
    "lat": 48.8531068723,
    "lng": 1.44282251415
  },
  {
    "ville": "Angais",
    "code": "64510",
    "lat": 43.2387006623,
    "lng": -0.247297469008
  },
  {
    "ville": "Ange",
    "code": "41400",
    "lat": 47.3165186023,
    "lng": 1.23978157464
  },
  {
    "ville": "Angeac Champagne",
    "code": "16130",
    "lat": 45.6137559506,
    "lng": -0.289585740498
  },
  {
    "ville": "Angeac Charente",
    "code": "16120",
    "lat": 45.6230428074,
    "lng": -0.0817275722505
  },
  {
    "ville": "Angecourt",
    "code": "08450",
    "lat": 49.6350718482,
    "lng": 4.97725786194
  },
  {
    "ville": "Angeduc",
    "code": "16300",
    "lat": 45.4783133378,
    "lng": -0.0552960913383
  },
  {
    "ville": "Angely",
    "code": "89440",
    "lat": 47.560677405,
    "lng": 4.01177532833
  },
  {
    "ville": "Angeot",
    "code": "90150",
    "lat": 47.6955037352,
    "lng": 7.00609340402
  },
  {
    "ville": "Angers",
    "code": "49000",
    "lat": 47.476837416,
    "lng": -0.556125995444
  },
  {
    "ville": "Angers",
    "code": "49100",
    "lat": 47.476837416,
    "lng": -0.556125995444
  },
  {
    "ville": "Angerville",
    "code": "14430",
    "lat": 49.2443066978,
    "lng": -0.0275594103031
  },
  {
    "ville": "Angerville",
    "code": "91670",
    "lat": 48.3095627706,
    "lng": 2.00619112268
  },
  {
    "ville": "Angerville Bailleul",
    "code": "76110",
    "lat": 49.667866856,
    "lng": 0.45434007056
  },
  {
    "ville": "Angerville L Orcher",
    "code": "76280",
    "lat": 49.5867004346,
    "lng": 0.292626408663
  },
  {
    "ville": "Angerville La Campagne",
    "code": "27930",
    "lat": 48.9889739894,
    "lng": 1.15705136083
  },
  {
    "ville": "Angerville La Martel",
    "code": "76540",
    "lat": 49.7681060505,
    "lng": 0.501685271986
  },
  {
    "ville": "Angervilliers",
    "code": "91470",
    "lat": 48.5911202876,
    "lng": 2.05864904136
  },
  {
    "ville": "Angeville",
    "code": "82210",
    "lat": 43.9938181839,
    "lng": 1.03112257966
  },
  {
    "ville": "Angevillers",
    "code": "57440",
    "lat": 49.3875925274,
    "lng": 6.04259987593
  },
  {
    "ville": "Angicourt",
    "code": "60940",
    "lat": 49.3148919573,
    "lng": 2.50251888584
  },
  {
    "ville": "Angiens",
    "code": "76740",
    "lat": 49.8336959193,
    "lng": 0.798984210018
  },
  {
    "ville": "Angirey",
    "code": "70700",
    "lat": 47.4548843773,
    "lng": 5.77329895236
  },
  {
    "ville": "Angivillers",
    "code": "60130",
    "lat": 49.4889521261,
    "lng": 2.49971184199
  },
  {
    "ville": "Anglade",
    "code": "33390",
    "lat": 45.2115004641,
    "lng": -0.638219671471
  },
  {
    "ville": "Anglards De Salers",
    "code": "15380",
    "lat": 45.1968681606,
    "lng": 2.46563596922
  },
  {
    "ville": "Anglards De St Flour",
    "code": "15100",
    "lat": 44.9887543021,
    "lng": 3.15851184449
  },
  {
    "ville": "Anglars",
    "code": "46120",
    "lat": 44.7474871579,
    "lng": 1.89850060381
  },
  {
    "ville": "Anglars Juillac",
    "code": "46140",
    "lat": 44.4865010847,
    "lng": 1.20855960816
  },
  {
    "ville": "Anglars Nozac",
    "code": "46300",
    "lat": 44.7827204407,
    "lng": 1.40862887217
  },
  {
    "ville": "Anglars St Felix",
    "code": "12390",
    "lat": 44.41616534,
    "lng": 2.2384963959
  },
  {
    "ville": "Anglefort",
    "code": "01350",
    "lat": 45.9093715116,
    "lng": 5.79516005674
  },
  {
    "ville": "Anglemont",
    "code": "88700",
    "lat": 48.375772608,
    "lng": 6.66844785634
  },
  {
    "ville": "Angles",
    "code": "04170",
    "lat": 43.9443293069,
    "lng": 6.55232063474
  },
  {
    "ville": "Angles",
    "code": "81260",
    "lat": 43.550474503,
    "lng": 2.58241545036
  },
  {
    "ville": "Angles",
    "code": "85750",
    "lat": 46.3870511077,
    "lng": -1.40049386944
  },
  {
    "ville": "Angles Sur L Anglin",
    "code": "86260",
    "lat": 46.6986976,
    "lng": 0.896253717569
  },
  {
    "ville": "Anglesqueville L Esneval",
    "code": "76280",
    "lat": 49.6304546019,
    "lng": 0.235444303485
  },
  {
    "ville": "Anglesqueville La Bras Long",
    "code": "76740",
    "lat": 49.7781234194,
    "lng": 0.782574427799
  },
  {
    "ville": "Anglet",
    "code": "64600",
    "lat": 43.4917846595,
    "lng": -1.51623373371
  },
  {
    "ville": "Angliers",
    "code": "17540",
    "lat": 46.2061055614,
    "lng": -0.949106581868
  },
  {
    "ville": "Angliers",
    "code": "86330",
    "lat": 46.9385872919,
    "lng": 0.102241708869
  },
  {
    "ville": "Anglure",
    "code": "51260",
    "lat": 48.5873514274,
    "lng": 3.8174517586
  },
  {
    "ville": "Anglure Sous Dun",
    "code": "71170",
    "lat": 46.235903333,
    "lng": 4.37061936256
  },
  {
    "ville": "Angluzelles Et Courcelles",
    "code": "51230",
    "lat": 48.6663421752,
    "lng": 3.90589421225
  },
  {
    "ville": "Angoisse",
    "code": "24270",
    "lat": 45.4299135686,
    "lng": 1.15056975659
  },
  {
    "ville": "Angomont",
    "code": "54540",
    "lat": 48.504868026,
    "lng": 6.97199355795
  },
  {
    "ville": "Angos",
    "code": "65690",
    "lat": 43.1986038545,
    "lng": 0.161492581105
  },
  {
    "ville": "Angouleme",
    "code": "16000",
    "lat": 45.6472585146,
    "lng": 0.14514490683
  },
  {
    "ville": "Angoulins",
    "code": "17690",
    "lat": 46.1067042744,
    "lng": -1.10617840927
  },
  {
    "ville": "Angoume",
    "code": "40990",
    "lat": 43.7003558941,
    "lng": -1.14195857021
  },
  {
    "ville": "Angous",
    "code": "64190",
    "lat": 43.2928389811,
    "lng": -0.812536653193
  },
  {
    "ville": "Angoustrine Villeneuve Des Escaldes",
    "code": "66760",
    "lat": 42.5644340706,
    "lng": 1.95068130074
  },
  {
    "ville": "Angoville",
    "code": "14220",
    "lat": 48.9437761025,
    "lng": -0.373433111551
  },
  {
    "ville": "Angres",
    "code": "62143",
    "lat": 50.4095857133,
    "lng": 2.75123923187
  },
  {
    "ville": "Angresse",
    "code": "40150",
    "lat": 43.6586092575,
    "lng": -1.36340493112
  },
  {
    "ville": "Angrie",
    "code": "49440",
    "lat": 47.5778407482,
    "lng": -0.968142946141
  },
  {
    "ville": "Anguilcourt Le Sart",
    "code": "02800",
    "lat": 49.6940879195,
    "lng": 3.42823182437
  },
  {
    "ville": "Angy",
    "code": "60250",
    "lat": 49.334468969,
    "lng": 2.32846218053
  },
  {
    "ville": "Anhaux",
    "code": "64220",
    "lat": 43.1459283383,
    "lng": -1.30104249702
  },
  {
    "ville": "Anhiers",
    "code": "59194",
    "lat": 50.4047718446,
    "lng": 3.15371031857
  },
  {
    "ville": "Aniane",
    "code": "34150",
    "lat": 43.6835011433,
    "lng": 3.59259437611
  },
  {
    "ville": "Aniche",
    "code": "59580",
    "lat": 50.330855319,
    "lng": 3.25574141604
  },
  {
    "ville": "Anisy",
    "code": "14610",
    "lat": 49.25086166,
    "lng": -0.398796097225
  },
  {
    "ville": "Anizy Le Chateau",
    "code": "02320",
    "lat": 49.5045058305,
    "lng": 3.43129584952
  },
  {
    "ville": "Anjeux",
    "code": "70800",
    "lat": 47.8815041686,
    "lng": 6.20949435555
  },
  {
    "ville": "Anjou",
    "code": "38150",
    "lat": 45.3485883521,
    "lng": 4.88275176327
  },
  {
    "ville": "Anjouin",
    "code": "36210",
    "lat": 47.2008943989,
    "lng": 1.80745396051
  },
  {
    "ville": "Anjoutey",
    "code": "90170",
    "lat": 47.7023396715,
    "lng": 6.92749570916
  },
  {
    "ville": "Anla",
    "code": "65370",
    "lat": 43.0053698793,
    "lng": 0.591471549126
  },
  {
    "ville": "Anlezy",
    "code": "58270",
    "lat": 46.966601859,
    "lng": 3.49853718093
  },
  {
    "ville": "Anlhiac",
    "code": "24160",
    "lat": 45.3214606994,
    "lng": 1.12082705606
  },
  {
    "ville": "Annay",
    "code": "58450",
    "lat": 47.5308551054,
    "lng": 2.94137018332
  },
  {
    "ville": "Annay",
    "code": "62880",
    "lat": 50.4616640055,
    "lng": 2.88243603583
  },
  {
    "ville": "Annay La Cote",
    "code": "89200",
    "lat": 47.5529211916,
    "lng": 3.87020615166
  },
  {
    "ville": "Annay Sur Serein",
    "code": "89310",
    "lat": 47.728708318,
    "lng": 3.96334270407
  },
  {
    "ville": "Annebault",
    "code": "14430",
    "lat": 49.248966024,
    "lng": 0.054049962802
  },
  {
    "ville": "Annecy",
    "code": "74000",
    "lat": 45.8906432566,
    "lng": 6.12551773598
  },
  {
    "ville": "Annecy Le Vieux",
    "code": "74940",
    "lat": 45.9193395896,
    "lng": 6.16076240491
  },
  {
    "ville": "Annelles",
    "code": "08310",
    "lat": 49.4316285312,
    "lng": 4.41382133592
  },
  {
    "ville": "Annemasse",
    "code": "74100",
    "lat": 46.1909730986,
    "lng": 6.24250704322
  },
  {
    "ville": "Anneot",
    "code": "89200",
    "lat": 47.5167662768,
    "lng": 3.87931663597
  },
  {
    "ville": "Annepont",
    "code": "17350",
    "lat": 45.8451541952,
    "lng": -0.606940524552
  },
  {
    "ville": "Annequin",
    "code": "62149",
    "lat": 50.5032887953,
    "lng": 2.71958159288
  },
  {
    "ville": "Annesse Et Beaulieu",
    "code": "24430",
    "lat": 45.1826946936,
    "lng": 0.595337077035
  },
  {
    "ville": "Annet Sur Marne",
    "code": "77410",
    "lat": 48.9223335323,
    "lng": 2.70854622393
  },
  {
    "ville": "Anneux",
    "code": "59400",
    "lat": 50.1570164384,
    "lng": 3.12505671113
  },
  {
    "ville": "Anneville Ambourville",
    "code": "76480",
    "lat": 49.450044528,
    "lng": 0.891983658071
  },
  {
    "ville": "Anneville En Saire",
    "code": "50760",
    "lat": 49.6362063201,
    "lng": -1.2855537086
  },
  {
    "ville": "Anneville La Prairie",
    "code": "52310",
    "lat": 48.2007257864,
    "lng": 5.08748613699
  },
  {
    "ville": "Anneville Sur Mer",
    "code": "50560",
    "lat": 49.1205964204,
    "lng": -1.58682666285
  },
  {
    "ville": "Anneville Sur Scie",
    "code": "76590",
    "lat": 49.8386907699,
    "lng": 1.09303231826
  },
  {
    "ville": "Anneyron",
    "code": "26140",
    "lat": 45.2718637753,
    "lng": 4.89169921081
  },
  {
    "ville": "Annezay",
    "code": "17380",
    "lat": 46.010330476,
    "lng": -0.69607751086
  },
  {
    "ville": "Annezin",
    "code": "62232",
    "lat": 50.5396043649,
    "lng": 2.61906640484
  },
  {
    "ville": "Annoeullin",
    "code": "59112",
    "lat": 50.5265153703,
    "lng": 2.92753629479
  },
  {
    "ville": "Annoire",
    "code": "39120",
    "lat": 46.9585671932,
    "lng": 5.27702969888
  },
  {
    "ville": "Annois",
    "code": "02480",
    "lat": 49.7210674108,
    "lng": 3.17611501401
  },
  {
    "ville": "Annoisin Chatelans",
    "code": "38460",
    "lat": 45.7607896686,
    "lng": 5.29198081726
  },
  {
    "ville": "Annoix",
    "code": "18340",
    "lat": 46.9690286816,
    "lng": 2.54279366157
  },
  {
    "ville": "Annonay",
    "code": "07100",
    "lat": 45.2460902392,
    "lng": 4.65026947295
  },
  {
    "ville": "Annonville",
    "code": "52230",
    "lat": 48.386421082,
    "lng": 5.26980637959
  },
  {
    "ville": "Annot",
    "code": "04240",
    "lat": 43.9620009704,
    "lng": 6.66395811566
  },
  {
    "ville": "Annouville Vilmesnil",
    "code": "76110",
    "lat": 49.6794638348,
    "lng": 0.431675175085
  },
  {
    "ville": "Annoux",
    "code": "89440",
    "lat": 47.6235485388,
    "lng": 4.0510085082
  },
  {
    "ville": "Annoville",
    "code": "50660",
    "lat": 48.9613248053,
    "lng": -1.5319902105
  },
  {
    "ville": "Anor",
    "code": "59186",
    "lat": 49.9949415311,
    "lng": 4.11785622281
  },
  {
    "ville": "Anos",
    "code": "64160",
    "lat": 43.3974753128,
    "lng": -0.289222563999
  },
  {
    "ville": "Anost",
    "code": "71550",
    "lat": 47.0770713545,
    "lng": 4.09241779804
  },
  {
    "ville": "Anould",
    "code": "88650",
    "lat": 48.1847716703,
    "lng": 6.94070062942
  },
  {
    "ville": "Anoux",
    "code": "54150",
    "lat": 49.2727570971,
    "lng": 5.8647091829
  },
  {
    "ville": "Anoye",
    "code": "64350",
    "lat": 43.3965266852,
    "lng": -0.136280497719
  },
  {
    "ville": "Anquetierville",
    "code": "76490",
    "lat": 49.5363169279,
    "lng": 0.632948005781
  },
  {
    "ville": "Anrosey",
    "code": "52500",
    "lat": 47.8449228993,
    "lng": 5.66083228787
  },
  {
    "ville": "Ansac Sur Vienne",
    "code": "16500",
    "lat": 45.9943029714,
    "lng": 0.619730334325
  },
  {
    "ville": "Ansacq",
    "code": "60250",
    "lat": 49.350204752,
    "lng": 2.36431728817
  },
  {
    "ville": "Ansan",
    "code": "32270",
    "lat": 43.6870501224,
    "lng": 0.781408599383
  },
  {
    "ville": "Ansauville",
    "code": "54470",
    "lat": 48.8123329537,
    "lng": 5.82286125547
  },
  {
    "ville": "Ansauvillers",
    "code": "60120",
    "lat": 49.5672978302,
    "lng": 2.38642388977
  },
  {
    "ville": "Anse",
    "code": "69480",
    "lat": 45.9422570443,
    "lng": 4.70796670026
  },
  {
    "ville": "Anse Bertrand",
    "code": "97121",
    "lat": 16.4655608425,
    "lng": -61.4616707348
  },
  {
    "ville": "Ansignan",
    "code": "66220",
    "lat": 42.7627016726,
    "lng": 2.52092387991
  },
  {
    "ville": "Ansost",
    "code": "65140",
    "lat": 43.4324735802,
    "lng": 0.109776461821
  },
  {
    "ville": "Ansouis",
    "code": "84240",
    "lat": 43.7365172868,
    "lng": 5.47136689464
  },
  {
    "ville": "Anstaing",
    "code": "59152",
    "lat": 50.603523536,
    "lng": 3.18920215192
  },
  {
    "ville": "Antagnac",
    "code": "47700",
    "lat": 44.3562107379,
    "lng": -0.00209058322762
  },
  {
    "ville": "Anterrieux",
    "code": "15110",
    "lat": 44.8313754887,
    "lng": 3.05707779467
  },
  {
    "ville": "Anteuil",
    "code": "25340",
    "lat": 47.3758227575,
    "lng": 6.57605269789
  },
  {
    "ville": "Antezant La Chapelle",
    "code": "17400",
    "lat": 45.9950682393,
    "lng": -0.482871743818
  },
  {
    "ville": "Anthe",
    "code": "47370",
    "lat": 44.3736020127,
    "lng": 0.955224087107
  },
  {
    "ville": "Anthelupt",
    "code": "54110",
    "lat": 48.6033445755,
    "lng": 6.41530002506
  },
  {
    "ville": "Anthenay",
    "code": "51700",
    "lat": 49.1391972334,
    "lng": 3.73533803847
  },
  {
    "ville": "Antheny",
    "code": "08260",
    "lat": 49.8444301625,
    "lng": 4.30477603028
  },
  {
    "ville": "Antheuil",
    "code": "21360",
    "lat": 47.1764418313,
    "lng": 4.74942827901
  },
  {
    "ville": "Antheuil Portes",
    "code": "60162",
    "lat": 49.5004605023,
    "lng": 2.73385430881
  },
  {
    "ville": "Anthien",
    "code": "58800",
    "lat": 47.3090555536,
    "lng": 3.72507845013
  },
  {
    "ville": "Anthon",
    "code": "38280",
    "lat": 45.7847587355,
    "lng": 5.15418784816
  },
  {
    "ville": "Anthy Sur Leman",
    "code": "74200",
    "lat": 46.3530564511,
    "lng": 6.42748586139
  },
  {
    "ville": "Antibes",
    "code": "06160",
    "lat": 43.587465146,
    "lng": 7.10635418256
  },
  {
    "ville": "Antibes",
    "code": "06600",
    "lat": 43.587465146,
    "lng": 7.10635418256
  },
  {
    "ville": "Antichan",
    "code": "65370",
    "lat": 42.9924688915,
    "lng": 0.583832200787
  },
  {
    "ville": "Antichan De Frontignes",
    "code": "31510",
    "lat": 42.9696953465,
    "lng": 0.676907980365
  },
  {
    "ville": "Antignac",
    "code": "15240",
    "lat": 45.3513149351,
    "lng": 2.56147315935
  },
  {
    "ville": "Antignac",
    "code": "31110",
    "lat": 42.8311657614,
    "lng": 0.587701526157
  },
  {
    "ville": "Antigny",
    "code": "85120",
    "lat": 46.6191770822,
    "lng": -0.767030058653
  },
  {
    "ville": "Antigny",
    "code": "86310",
    "lat": 46.5360016424,
    "lng": 0.839149696505
  },
  {
    "ville": "Antigny La Ville",
    "code": "21230",
    "lat": 47.1012813081,
    "lng": 4.55975234629
  },
  {
    "ville": "Antilly",
    "code": "57640",
    "lat": 49.19731326,
    "lng": 6.24824504682
  },
  {
    "ville": "Antilly",
    "code": "60620",
    "lat": 49.1550668913,
    "lng": 2.98806856134
  },
  {
    "ville": "Antin",
    "code": "65220",
    "lat": 43.3324246014,
    "lng": 0.290105540606
  },
  {
    "ville": "Antisanti",
    "code": "20270",
    "lat": 42.1562385991,
    "lng": 9.38406808296
  },
  {
    "ville": "Antist",
    "code": "65200",
    "lat": 43.1198806357,
    "lng": 0.135249572657
  },
  {
    "ville": "Antogny Le Tillac",
    "code": "37800",
    "lat": 46.9684491062,
    "lng": 0.55478841999
  },
  {
    "ville": "Antoigne",
    "code": "49260",
    "lat": 47.0784768788,
    "lng": -0.131764667589
  },
  {
    "ville": "Antoingt",
    "code": "63340",
    "lat": 45.5004481767,
    "lng": 3.18402754188
  },
  {
    "ville": "Antonne Et Trigonant",
    "code": "24420",
    "lat": 45.2300537681,
    "lng": 0.831654901001
  },
  {
    "ville": "Antony",
    "code": "92160",
    "lat": 48.7503412602,
    "lng": 2.2993268102
  },
  {
    "ville": "Antraigues Sur Volane",
    "code": "07530",
    "lat": 44.7393183247,
    "lng": 4.35517589387
  },
  {
    "ville": "Antrain",
    "code": "35560",
    "lat": 48.4623399244,
    "lng": -1.47875897631
  },
  {
    "ville": "Antran",
    "code": "86100",
    "lat": 46.877083076,
    "lng": 0.530703043552
  },
  {
    "ville": "Antras",
    "code": "09800",
    "lat": 42.8732630887,
    "lng": 0.901092072285
  },
  {
    "ville": "Antras",
    "code": "32360",
    "lat": 43.7297815118,
    "lng": 0.444047087158
  },
  {
    "ville": "Antrenas",
    "code": "48100",
    "lat": 44.5881108325,
    "lng": 3.25393256642
  },
  {
    "ville": "Antugnac",
    "code": "11190",
    "lat": 42.9622347688,
    "lng": 2.21863246536
  },
  {
    "ville": "Antully",
    "code": "71400",
    "lat": 46.8926537731,
    "lng": 4.40284807189
  },
  {
    "ville": "Anveville",
    "code": "76560",
    "lat": 49.6996514081,
    "lng": 0.748889414499
  },
  {
    "ville": "Anville",
    "code": "16170",
    "lat": 45.8313102737,
    "lng": -0.121697535587
  },
  {
    "ville": "Anvin",
    "code": "62134",
    "lat": 50.4503901319,
    "lng": 2.25792059446
  },
  {
    "ville": "Any Martin Rieux",
    "code": "02500",
    "lat": 49.8823706752,
    "lng": 4.22351346907
  },
  {
    "ville": "Anzat Le Luguet",
    "code": "63420",
    "lat": 45.3306191916,
    "lng": 3.01194241608
  },
  {
    "ville": "Anzeling",
    "code": "57320",
    "lat": 49.2683112384,
    "lng": 6.46229391409
  },
  {
    "ville": "Anzeme",
    "code": "23000",
    "lat": 46.2540912663,
    "lng": 1.84997964766
  },
  {
    "ville": "Anzex",
    "code": "47700",
    "lat": 44.2862673358,
    "lng": 0.170412994362
  },
  {
    "ville": "Anzin",
    "code": "59410",
    "lat": 50.3753643424,
    "lng": 3.51113183833
  },
  {
    "ville": "Anzin St Aubin",
    "code": "62223",
    "lat": 50.3178758623,
    "lng": 2.74105063372
  },
  {
    "ville": "Anzy Le Duc",
    "code": "71110",
    "lat": 46.3239156269,
    "lng": 4.07162173983
  },
  {
    "ville": "Aoste",
    "code": "38490",
    "lat": 45.5976216526,
    "lng": 5.61289945248
  },
  {
    "ville": "Aougny",
    "code": "51170",
    "lat": 49.1874469545,
    "lng": 3.72490243283
  },
  {
    "ville": "Aouste",
    "code": "08290",
    "lat": 49.7952206071,
    "lng": 4.31356214296
  },
  {
    "ville": "Aouste Sur Sye",
    "code": "26400",
    "lat": 44.706679476,
    "lng": 5.05730534436
  },
  {
    "ville": "Aouze",
    "code": "88170",
    "lat": 48.3842823677,
    "lng": 5.86742713416
  },
  {
    "ville": "Apach",
    "code": "57480",
    "lat": 49.4602733408,
    "lng": 6.38601004029
  },
  {
    "ville": "Apatou",
    "code": "97317",
    "lat": 4.83044768998,
    "lng": -54.2705505503
  },
  {
    "ville": "Apchat",
    "code": "63420",
    "lat": 45.3738404423,
    "lng": 3.14813755867
  },
  {
    "ville": "Apchon",
    "code": "15400",
    "lat": 45.24485231,
    "lng": 2.69776842052
  },
  {
    "ville": "Apinac",
    "code": "42550",
    "lat": 45.3913756385,
    "lng": 3.99457780325
  },
  {
    "ville": "Appelle",
    "code": "81700",
    "lat": 43.5806834944,
    "lng": 1.95329824844
  },
  {
    "ville": "Appenai Sous Belleme",
    "code": "61130",
    "lat": 48.3400960941,
    "lng": 0.564708341058
  },
  {
    "ville": "Appenans",
    "code": "25250",
    "lat": 47.4512206188,
    "lng": 6.56926667052
  },
  {
    "ville": "Appenwihr",
    "code": "68280",
    "lat": 48.0252709837,
    "lng": 7.45257417009
  },
  {
    "ville": "Appeville",
    "code": "50500",
    "lat": 49.3270407818,
    "lng": -1.3359052724
  },
  {
    "ville": "Appeville Annebault",
    "code": "27290",
    "lat": 49.322265478,
    "lng": 0.651047926386
  },
  {
    "ville": "Appietto",
    "code": "20167",
    "lat": 42.0032023283,
    "lng": 8.73355643393
  },
  {
    "ville": "Appilly",
    "code": "60400",
    "lat": 49.582424474,
    "lng": 3.12116123031
  },
  {
    "ville": "Appoigny",
    "code": "89380",
    "lat": 47.8663621082,
    "lng": 3.51999342457
  },
  {
    "ville": "Apprieu",
    "code": "38140",
    "lat": 45.3973605604,
    "lng": 5.4963701967
  },
  {
    "ville": "Appy",
    "code": "09250",
    "lat": 42.8035768143,
    "lng": 1.74201642035
  },
  {
    "ville": "Apremont",
    "code": "01100",
    "lat": 46.2054981558,
    "lng": 5.65781475272
  },
  {
    "ville": "Apremont",
    "code": "08250",
    "lat": 49.259356566,
    "lng": 4.96764027649
  },
  {
    "ville": "Apremont",
    "code": "60300",
    "lat": 49.2286452463,
    "lng": 2.5135789889
  },
  {
    "ville": "Apremont",
    "code": "70100",
    "lat": 47.3925481381,
    "lng": 5.52972879286
  },
  {
    "ville": "Apremont",
    "code": "73190",
    "lat": 45.5012177421,
    "lng": 5.93652738114
  },
  {
    "ville": "Apremont",
    "code": "85220",
    "lat": 46.7572682339,
    "lng": -1.74841313647
  },
  {
    "ville": "Apremont La Foret",
    "code": "55300",
    "lat": 48.8438751454,
    "lng": 5.62186076093
  },
  {
    "ville": "Apremont Sur Allier",
    "code": "18150",
    "lat": 46.9110862876,
    "lng": 3.01870489401
  },
  {
    "ville": "Aprey",
    "code": "52250",
    "lat": 47.7713625885,
    "lng": 5.1988766167
  },
  {
    "ville": "Apt",
    "code": "84400",
    "lat": 43.879393265,
    "lng": 5.38921757843
  },
  {
    "ville": "Arabaux",
    "code": "09000",
    "lat": 42.980519234,
    "lng": 1.63390482016
  },
  {
    "ville": "Araches La Frasse",
    "code": "74300",
    "lat": 46.0302694516,
    "lng": 6.66062068121
  },
  {
    "ville": "Aragnouet",
    "code": "65170",
    "lat": 42.784224156,
    "lng": 0.178165691036
  },
  {
    "ville": "Aragon",
    "code": "11600",
    "lat": 43.298766565,
    "lng": 2.30707240315
  },
  {
    "ville": "Aramits",
    "code": "64570",
    "lat": 43.1318295065,
    "lng": -0.724473601106
  },
  {
    "ville": "Aramon",
    "code": "30390",
    "lat": 43.904199015,
    "lng": 4.68302001901
  },
  {
    "ville": "Aranc",
    "code": "01110",
    "lat": 46.0015344029,
    "lng": 5.51130637511
  },
  {
    "ville": "Arancou",
    "code": "64270",
    "lat": 43.4438787221,
    "lng": -1.05280002539
  },
  {
    "ville": "Arandas",
    "code": "01230",
    "lat": 45.8908155275,
    "lng": 5.49870439091
  },
  {
    "ville": "Arandon",
    "code": "38510",
    "lat": 45.7165626192,
    "lng": 5.44443643787
  },
  {
    "ville": "Araujuzon",
    "code": "64190",
    "lat": 43.3506639149,
    "lng": -0.830144585337
  },
  {
    "ville": "Araules",
    "code": "43200",
    "lat": 45.0650385961,
    "lng": 4.16874927244
  },
  {
    "ville": "Araux",
    "code": "64190",
    "lat": 43.3409945704,
    "lng": -0.819420157964
  },
  {
    "ville": "Arbanats",
    "code": "33640",
    "lat": 44.670996265,
    "lng": -0.40276700503
  },
  {
    "ville": "Arbas",
    "code": "31160",
    "lat": 42.9925595052,
    "lng": 0.905628547412
  },
  {
    "ville": "Arbecey",
    "code": "70120",
    "lat": 47.7352817883,
    "lng": 5.93210492724
  },
  {
    "ville": "Arbellara",
    "code": "20110",
    "lat": 41.6711031024,
    "lng": 8.98935818241
  },
  {
    "ville": "Arbent",
    "code": "01100",
    "lat": 46.2834936005,
    "lng": 5.69061651221
  },
  {
    "ville": "Arbeost",
    "code": "65560",
    "lat": 42.9800099474,
    "lng": -0.274398509458
  },
  {
    "ville": "Arberats Sillegue",
    "code": "64120",
    "lat": 43.340809615,
    "lng": -0.991760283648
  },
  {
    "ville": "Arbigny",
    "code": "01190",
    "lat": 46.4776762988,
    "lng": 4.9599416863
  },
  {
    "ville": "Arbigny Sous Varennes",
    "code": "52500",
    "lat": 47.860574645,
    "lng": 5.610752246
  },
  {
    "ville": "Arbin",
    "code": "73800",
    "lat": 45.510931197,
    "lng": 6.07455521712
  },
  {
    "ville": "Arbis",
    "code": "33760",
    "lat": 44.6725868035,
    "lng": -0.2547200817
  },
  {
    "ville": "Arblade Le Bas",
    "code": "32720",
    "lat": 43.705221087,
    "lng": -0.17265437468
  },
  {
    "ville": "Arblade Le Haut",
    "code": "32110",
    "lat": 43.7407745105,
    "lng": -0.061788186637
  },
  {
    "ville": "Arbois",
    "code": "39600",
    "lat": 46.8941749828,
    "lng": 5.77318253275
  },
  {
    "ville": "Arbon",
    "code": "31160",
    "lat": 43.000904094,
    "lng": 0.731075064686
  },
  {
    "ville": "Arbonne",
    "code": "64210",
    "lat": 43.4221190537,
    "lng": -1.54906516427
  },
  {
    "ville": "Arbonne La Foret",
    "code": "77630",
    "lat": 48.4103383904,
    "lng": 2.5610975271
  },
  {
    "ville": "Arboras",
    "code": "34150",
    "lat": 43.7212717776,
    "lng": 3.47409312363
  },
  {
    "ville": "Arbori",
    "code": "20160",
    "lat": 42.1278317001,
    "lng": 8.79544743856
  },
  {
    "ville": "Arbot",
    "code": "52160",
    "lat": 47.847249934,
    "lng": 5.01730732864
  },
  {
    "ville": "Arbouans",
    "code": "25400",
    "lat": 47.4885179108,
    "lng": 6.80807595575
  },
  {
    "ville": "Arboucave",
    "code": "40320",
    "lat": 43.6059261585,
    "lng": -0.44174435794
  },
  {
    "ville": "Arbouet Sussaute",
    "code": "64120",
    "lat": 43.3718035763,
    "lng": -0.989499391955
  },
  {
    "ville": "Arbourse",
    "code": "58350",
    "lat": 47.2487922642,
    "lng": 3.2239933188
  },
  {
    "ville": "Arboussols",
    "code": "66320",
    "lat": 42.6660398231,
    "lng": 2.49328385773
  },
  {
    "ville": "Arboys En Bugey",
    "code": "01300",
    "lat": 45.7237621545,
    "lng": 5.65263086429
  },
  {
    "ville": "Arbrissel",
    "code": "35130",
    "lat": 47.9272051902,
    "lng": -1.29532585223
  },
  {
    "ville": "Arbus",
    "code": "64230",
    "lat": 43.3244225813,
    "lng": -0.506270542842
  },
  {
    "ville": "Arbusigny",
    "code": "74930",
    "lat": 46.086240469,
    "lng": 6.20734603818
  },
  {
    "ville": "Arc En Barrois",
    "code": "52210",
    "lat": 47.947611382,
    "lng": 5.02233277969
  },
  {
    "ville": "Arc Et Senans",
    "code": "25610",
    "lat": 47.0351046371,
    "lng": 5.76978366413
  },
  {
    "ville": "Arc Les Gray",
    "code": "70100",
    "lat": 47.4628603881,
    "lng": 5.58172003346
  },
  {
    "ville": "Arc Sous Cicon",
    "code": "25520",
    "lat": 47.052125982,
    "lng": 6.3997146018
  },
  {
    "ville": "Arc Sous Montenot",
    "code": "25270",
    "lat": 46.9151827645,
    "lng": 6.00599288547
  },
  {
    "ville": "Arc Sur Tille",
    "code": "21560",
    "lat": 47.3382300377,
    "lng": 5.20032142407
  },
  {
    "ville": "Arcachon",
    "code": "33120",
    "lat": 44.6529002838,
    "lng": -1.17429790933
  },
  {
    "ville": "Arcais",
    "code": "79210",
    "lat": 46.3012932064,
    "lng": -0.695370994677
  },
  {
    "ville": "Arcambal",
    "code": "46090",
    "lat": 44.4543698318,
    "lng": 1.54748898105
  },
  {
    "ville": "Arcangues",
    "code": "64200",
    "lat": 43.4260778242,
    "lng": -1.51681726621
  },
  {
    "ville": "Arcay",
    "code": "18340",
    "lat": 46.9625352039,
    "lng": 2.3359112711
  },
  {
    "ville": "Arcay",
    "code": "86200",
    "lat": 46.9520341162,
    "lng": 0.00333589547426
  },
  {
    "ville": "Arceau",
    "code": "21310",
    "lat": 47.3759150158,
    "lng": 5.19629196424
  },
  {
    "ville": "Arcenant",
    "code": "21700",
    "lat": 47.1403914793,
    "lng": 4.83749940217
  },
  {
    "ville": "Arcens",
    "code": "07310",
    "lat": 44.9005086707,
    "lng": 4.31778204029
  },
  {
    "ville": "Arces",
    "code": "17120",
    "lat": 45.5603861745,
    "lng": -0.873664735629
  },
  {
    "ville": "Arces Dilo",
    "code": "89320",
    "lat": 48.0983124946,
    "lng": 3.59434299703
  },
  {
    "ville": "Arcey",
    "code": "21410",
    "lat": 47.2746433472,
    "lng": 4.82435366127
  },
  {
    "ville": "Arcey",
    "code": "25750",
    "lat": 47.5194914432,
    "lng": 6.65186946515
  },
  {
    "ville": "Archail",
    "code": "04420",
    "lat": 44.1110653424,
    "lng": 6.33071411194
  },
  {
    "ville": "Archamps",
    "code": "74160",
    "lat": 46.1222282115,
    "lng": 6.13971386615
  },
  {
    "ville": "Archelange",
    "code": "39290",
    "lat": 47.1484873028,
    "lng": 5.52058392702
  },
  {
    "ville": "Arches",
    "code": "15200",
    "lat": 45.2984854251,
    "lng": 2.31775819342
  },
  {
    "ville": "Arches",
    "code": "88380",
    "lat": 48.1133336245,
    "lng": 6.51405793958
  },
  {
    "ville": "Archettes",
    "code": "88380",
    "lat": 48.1321521406,
    "lng": 6.54858727341
  },
  {
    "ville": "Archiac",
    "code": "17520",
    "lat": 45.5228923637,
    "lng": -0.301856482703
  },
  {
    "ville": "Archignac",
    "code": "24590",
    "lat": 45.0157581227,
    "lng": 1.29160105992
  },
  {
    "ville": "Archignat",
    "code": "03380",
    "lat": 46.3670864602,
    "lng": 2.41001210443
  },
  {
    "ville": "Archigny",
    "code": "86210",
    "lat": 46.6715864043,
    "lng": 0.681233798313
  },
  {
    "ville": "Archingeay",
    "code": "17380",
    "lat": 45.9283336011,
    "lng": -0.717220453831
  },
  {
    "ville": "Archon",
    "code": "02360",
    "lat": 49.744126618,
    "lng": 4.11908765808
  },
  {
    "ville": "Arcinges",
    "code": "42460",
    "lat": 46.1346681524,
    "lng": 4.28747149673
  },
  {
    "ville": "Arcins",
    "code": "33460",
    "lat": 45.0765827796,
    "lng": -0.70962789405
  },